Date de début;Date de fin;Organisme;code zas;Zas;code site;nom site;type d'implantation;Polluant;type d'influence;Réglementaire;type d'évaluation;type de valeur;valeur;valeur brute;unité de mesure;taux de saisie;couverture temporelle;couverture de données;code qualité;validité;Latitude;Longitude
2025/01/14 00:00:00;2025/01/14 14:00:00;GWAD'AIR;FR01ZRE01;ZR GUADELOUPE;FR37038;SXM Marigot;Urbaine;O3;Fond;Oui;estimation objective;Max. journalier moy. hor.;61.7;61.675;µg/m3;100.0;100;100.0;R;1;18.070114;-63.081481
2025/01/14 00:00:00;2025/01/14 14:00:00;MADININAIR;FR02ZAR01;ZAR FORT-DE-FRANCE;FR39009;Lamentin;Urbaine;O3;Fond;Oui;mesures fixes;Max. journalier moy. hor.;45.4;45.4;µg-m3;100.0;100;100.0;A;1;14.610653;-61.002586
2025/01/14 00:00:00;2025/01/14 14:00:00;MADININAIR;FR02ZRE01;ZR MARTINIQUE;FR39014;Sainte_Luce;Périurbaine;O3;Fond;Oui;mesures fixes;Max. journalier moy. hor.;69.0;68.975;µg-m3;100.0;100;100.0;A;1;14.468869;-60.927417
2025/01/14 00:00:00;2025/01/14 14:00:00;MADININAIR;FR02ZAR01;ZAR FORT-DE-FRANCE;FR39016;Robert Bourg;Urbaine;O3;Fond;Oui;mesures fixes;Max. journalier moy. hor.;55.3;55.25;µg-m3;100.0;100;100.0;A;1;14.678025;-60.939056
2025/01/14 00:00:00;2025/01/14 14:00:00;MADININAIR;FR02ZAR01;ZAR FORT-DE-FRANCE;FR39017;Bellevue;Périurbaine;O3;Fond;Oui;mesures fixes;Max. journalier moy. hor.;65.9;65.9;µg-m3;100.0;100;100.0;A;1;14.601469;-61.085331
2025/01/14 00:00:00;2025/01/14 15:00:00;GWAD'AIR;FR01ZAG01;ZAG POINTE-A-PITRE;FR37001;ST de Baie mahault;Périurbaine;O3;Fond;Oui;estimation objective;Max. journalier moy. hor.;50.2;50.225;µg-m3;100.0;100;100.0;A;1;16.257308;-61.591725
2025/01/14 00:00:00;2025/01/14 15:00:00;GWAD'AIR;FR01ZAG01;ZAG POINTE-A-PITRE;FR37006;PTP-VICTOIRE;Urbaine;O3;Fond;Oui;mesures fixes;Max. journalier moy. hor.;40.2;40.175;µg/m3;100.0;100;100.0;A;1;16.23674;-61.534101
2025/01/14 00:00:00;2025/01/14 15:00:00;GWAD'AIR;FR01ZRE01;ZR GUADELOUPE;FR37010;BT_PICHON;Urbaine;O3;Fond;Oui;mesures fixes;Max. journalier moy. hor.;23.0;22.975;µg/m3;100.0;100;100.0;A;1;15.994349;-61.727203
2025/01/14 00:00:00;2025/01/14 15:00:00;ATMO GUYANE;FR03ZRE01;ZR GUYANE;FR40006;Kourou Gaston Monnerville Brady;Urbaine;O3;Fond;Oui;mesures indicatives;Max. journalier moy. hor.;79.9;79.875;µg-m3;100.0;100;100.0;A;1;5.164248;-52.64649
2025/01/14 00:00:00;2025/01/14 15:00:00;ATMO GUYANE;FR03ZAR01;ZAR ILE-DE-CAYENNE;FR40007;Kalou;Périurbaine;O3;Fond;Oui;mesures fixes;Max. journalier moy. hor.;75.6;75.55;µg-m3;100.0;100;100.0;A;1;4.84816;-52.3238
2025/01/14 00:00:00;2025/01/14 15:00:00;ATMO GUYANE;FR03ZRE01;ZR GUYANE;FR40010;Matiti;Rurale près des villes;O3;Fond;Oui;estimation objective;Max. journalier moy. hor.;77.3;77.275;µg-m3;100.0;100;100.0;A;1;5.034602;-52.563795
2025/01/14 00:00:00;2025/01/14 18:00:00;ATMO HAUTS DE FRANCE;FR32ZRE01;ZR HAUTS-DE-FRANCE;FR18058;Gaudechart;Rurale régionale;O3;Fond;Oui;mesures fixes;Max. journalier moy. hor.;54.5;54.475;µg-m3;100.0;100;100.0;A;1;49.61563;1.963259
2025/01/14 00:00:00;2025/01/14 18:00:00;AIR PAYS DE LA LOIRE;FR52ZRE01;ZR PAYS-DE-LA-LOIRE;FR23078;SAINT EXUPERY;Urbaine;O3;Fond;Oui;mesures fixes;Max. journalier moy. hor.;51.0;50.95;µg-m3;100.0;100;100.0;A;1;47.054443;-0.886111
2025/01/14 00:00:00;2025/01/14 18:00:00;AIR PAYS DE LA LOIRE;FR52ZAG01;ZAG NANTES-SAINT-NAZAIRE;FR23110;LEON BLUM;Urbaine;O3;Fond;Oui;mesures fixes;Max. journalier moy. hor.;45.6;45.6;µg-m3;100.0;100;100.0;A;1;47.26412;-2.249858
2025/01/14 00:00:00;2025/01/14 18:00:00;AIR PAYS DE LA LOIRE;FR52ZAR03;ZAR LAVAL;FR23123;MAZAGRAN;Urbaine;O3;Fond;Oui;mesures fixes;Max. journalier moy. hor.;43.5;43.5;µg-m3;100.0;100;100.0;A;1;48.06943;-0.767692
2025/01/14 00:00:00;2025/01/14 18:00:00;AIR PAYS DE LA LOIRE;FR52ZRE01;ZR PAYS-DE-LA-LOIRE;FR23124;LA TARDIERE;Rurale nationale;O3;Fond;Oui;mesures fixes;Max. journalier moy. hor.;56.8;56.825;µg-m3;100.0;100;100.0;A;1;46.656685;-0.743681
2025/01/14 00:00:00;2025/01/14 18:00:00;AIR PAYS DE LA LOIRE;FR52ZAR01;ZAR ANGERS-LOIRE;FR23150;APPENTIS;Urbaine;O3;Fond;Oui;mesures fixes;Max. journalier moy. hor.;44.4;44.4;µg-m3;100.0;100;100.0;A;1;47.44739;-0.550067
2025/01/14 00:00:00;2025/01/14 18:00:00;AIR PAYS DE LA LOIRE;FR52ZRE01;ZR PAYS-DE-LA-LOIRE;FR23152;DELACROIX;Urbaine;O3;Fond;Oui;mesures fixes;Max. journalier moy. hor.;48.2;48.2;µg-m3;100.0;100;100.0;A;1;46.6607;-1.436831
2025/01/14 00:00:00;2025/01/14 18:00:00;AIR PAYS DE LA LOIRE;FR52ZAG01;ZAG NANTES-SAINT-NAZAIRE;FR23157;EPINETTES;Périurbaine;O3;Fond;Oui;mesures fixes;Max. journalier moy. hor.;42.2;42.23333;µg-m3;94.0;100;94.0;R;1;47.146088;-1.690269
2025/01/14 00:00:00;2025/01/14 18:00:00;AIR PAYS DE LA LOIRE;FR52ZRE01;ZR PAYS-DE-LA-LOIRE;FR23163;Fillé;Périurbaine;O3;Fond;Oui;mesures fixes;Max. journalier moy. hor.;39.6;39.575;µg-m3;100.0;100;100.0;A;1;47.92192;0.151825
2025/01/14 00:00:00;2025/01/14 18:00:00;AIR PAYS DE LA LOIRE;FR52ZAR01;ZAR ANGERS-LOIRE;FR23175;CLOS DES BEAUVAIS;Périurbaine;O3;Fond;Oui;mesures fixes;Max. journalier moy. hor.;54.3;54.275;µg-m3;100.0;100;100.0;A;1;47.430164;-0.610064
2025/01/14 00:00:00;2025/01/14 18:00:00;AIR PAYS DE LA LOIRE;FR52ZRE01;ZR PAYS-DE-LA-LOIRE;FR23177;SAINT-DENIS D'ANJOU;Rurale régionale;O3;Fond;Oui;mesures fixes;Max. journalier moy. hor.;53.1;53.075;µg-m3;100.0;100;100.0;A;1;47.78773;-0.444044
2025/01/14 00:00:00;2025/01/14 18:00:00;AIR PAYS DE LA LOIRE;FR52ZAR02;ZAR LE-MANS;FR23182;SOURCES;Urbaine;O3;Fond;Oui;mesures fixes;Max. journalier moy. hor.;43.3;43.25;µg-m3;100.0;100;100.0;A;1;47.971066;0.221422
2025/01/14 00:00:00;2025/01/14 18:00:00;AIR PAYS DE LA LOIRE;FR52ZAG01;ZAG NANTES-SAINT-NAZAIRE;FR23188;CIM BOUTEILLERIE;Urbaine;O3;Fond;Oui;mesures fixes;Max. journalier moy. hor.;43.2;43.15;µg-m3;100.0;100;100.0;A;1;47.2225;-1.5375
2025/01/14 00:00:00;2025/01/14 18:00:00;AIR PAYS DE LA LOIRE;FR52ZAG01;ZAG NANTES-SAINT-NAZAIRE;FR23230;GASPARD;Périurbaine;O3;Fond;Oui;mesures fixes;Max. journalier moy. hor.;54.6;54.625;µg-m3;100.0;100;100.0;A;1;47.253056;-2.332067
2025/01/14 00:00:00;2025/01/14 19:00:00;ATMO GRAND EST;FR44ZAG02;ZAG METZ;FR01011;Metz-Centre;Urbaine;O3;Fond;Oui;mesures fixes;Max. journalier moy. hor.;47.2;47.225;µg-m3;100.0;100;100.0;A;1;49.119442;6.180833
2025/01/14 00:00:00;2025/01/14 19:00:00;ATMO GRAND EST;FR44ZAG02;ZAG METZ;FR01018;Scy-Chazelles;Périurbaine;O3;Fond;Oui;mesures fixes;Max. journalier moy. hor.;45.0;45.0;µg-m3;100.0;100;100.0;R;1;49.107502;6.122775
2025/01/14 00:00:00;2025/01/14 19:00:00;ATMO GRAND EST;FR44ZAG02;ZAG METZ;FR01021;Thionville-Garche;Périurbaine;O3;Fond;Oui;mesures fixes;Max. journalier moy. hor.;37.3;37.25;µg-m3;100.0;100;100.0;A;1;49.394444;6.201392
2025/01/14 00:00:00;2025/01/14 19:00:00;ATMO SUD;FR93ZAG01;ZAG MARSEILLE-AIX;FR02001;Berre l'Etang;Périurbaine;O3;Fond;Oui;mesures fixes;Max. journalier moy. hor.;39.4;39.35;µg-m3;100.0;100;100.0;R;1;43.486234;5.171939
2025/01/14 00:00:00;2025/01/14 19:00:00;ATMO SUD;FR93ZAG01;ZAG MARSEILLE-AIX;FR02004;Martigues P. Central;Urbaine;O3;Fond;Oui;mesures fixes;Max. journalier moy. hor.;44.8;44.8;µg-m3;100.0;100;100.0;R;1;43.416661;5.042731
2025/01/14 00:00:00;2025/01/14 19:00:00;ATMO SUD;FR93ZAG01;ZAG MARSEILLE-AIX;FR02012;Istres;Urbaine;O3;Fond;Oui;mesures fixes;Max. journalier moy. hor.;38.7;38.7;µg-m3;100.0;100;100.0;R;1;43.506149;4.982898
2025/01/14 00:00:00;2025/01/14 19:00:00;ATMO SUD;FR93ZAG01;ZAG MARSEILLE-AIX;FR02021;Sausset les Pins;Périurbaine;O3;Fond;Oui;mesures fixes;Max. journalier moy. hor.;44.9;44.85;µg-m3;100.0;100;100.0;R;1;43.331245;5.117696
2025/01/14 00:00:00;2025/01/14 19:00:00;ATMO SUD;FR93ZRE02;ZR PROVENCE-ALPES-COTE-D-AZUR;FR02022;Arles;Urbaine;O3;Fond;Oui;mesures fixes;Max. journalier moy. hor.;46.4;46.35;µg-m3;100.0;100;100.0;R;1;43.675114;4.62921
2025/01/14 00:00:00;2025/01/14 19:00:00;ATMO SUD;FR93ZAG01;ZAG MARSEILLE-AIX;FR02041;SALON;Urbaine;O3;Fond;Oui;mesures fixes;Max. journalier moy. hor.;38.5;38.5;µg-m3;89.0;100;89.0;R;1;43.639002;5.101097
2025/01/14 00:00:00;2025/01/14 19:00:00;ATMO SUD;FR93ZRE02;ZR PROVENCE-ALPES-COTE-D-AZUR;FR03027;PLAN AUPS/STE  BAUME;Rurale près des villes;O3;Fond;Oui;mesures fixes;Max. journalier moy. hor.;78.4;78.4;µg-m3;100.0;100;100.0;R;1;43.335201;5.727365
2025/01/14 00:00:00;2025/01/14 19:00:00;ATMO SUD;FR93ZAG01;ZAG MARSEILLE-AIX;FR03032;AUBAGNE LES PASSONS;Urbaine;O3;Fond;Oui;mesures fixes;Max. journalier moy. hor.;56.4;56.375;µg-m3;100.0;100;100.0;R;1;43.293138;5.574184
2025/01/14 00:00:00;2025/01/14 19:00:00;ATMO SUD;FR93ZAG01;ZAG MARSEILLE-AIX;FR03037;VALLEE HUVEAUNE;Périurbaine;O3;Fond;Oui;mesures fixes;Max. journalier moy. hor.;64.8;64.8;µg-m3;100.0;100;100.0;R;1;43.283341;5.511384
2025/01/14 00:00:00;2025/01/14 19:00:00;ATMO SUD;FR93ZAG01;ZAG MARSEILLE-AIX;FR03043;MARSEILLE 5 AVENUES;Urbaine;O3;Fond;Oui;mesures fixes;Max. journalier moy. hor.;31.9;31.9;µg-m3;84.0;100;84.0;R;1;43.305287;5.394716
2025/01/14 00:00:00;2025/01/14 19:00:00;ATMO SUD;FR93ZAG01;ZAG MARSEILLE-AIX;FR03048;AIX PLATANES;Périurbaine;O3;Fond;Oui;mesures fixes;Max. journalier moy. hor.;64.7;64.65;µg-m3;100.0;100;100.0;R;1;43.555777;5.461232
2025/01/14 00:00:00;2025/01/14 19:00:00;ATMO SUD;FR93ZAG03;ZAG TOULON;FR03064;LA VALETTE/LA GARDE;Périurbaine;O3;Fond;Oui;mesures fixes;Max. journalier moy. hor.;65.8;65.775;µg-m3;100.0;100;100.0;R;1;43.135902;6.011513
2025/01/14 00:00:00;2025/01/14 19:00:00;ATMO SUD;FR93ZRE02;ZR PROVENCE-ALPES-COTE-D-AZUR;FR03067;BRIGNOLES;Périurbaine;O3;Fond;Oui;mesures fixes;Max. journalier moy. hor.;72.0;71.975;µg-m3;100.0;100;100.0;R;1;43.398731;6.075611
2025/01/14 00:00:00;2025/01/14 19:00:00;ATMO SUD;FR93ZRE02;ZR PROVENCE-ALPES-COTE-D-AZUR;FR03070;ESTEREL;Périurbaine;O3;Fond;Oui;mesures fixes;Max. journalier moy. hor.;72.4;72.425;µg-m3;100.0;100;100.0;R;1;43.437874;6.76839
2025/01/14 00:00:00;2025/01/14 19:00:00;ATMO SUD;FR93ZAG03;ZAG TOULON;FR03071;TOULON CLARET;Urbaine;O3;Fond;Oui;mesures fixes;Max. journalier moy. hor.;69.2;69.2;µg-m3;100.0;100;100.0;R;1;43.131113;5.924184
2025/01/14 00:00:00;2025/01/14 19:00:00;ATMO SUD;FR93ZRE02;ZR PROVENCE-ALPES-COTE-D-AZUR;FR03086;APT;Périurbaine;O3;Fond;Oui;mesures fixes;Max. journalier moy. hor.;49.9;49.925;µg-m3;100.0;100;100.0;R;1;43.88012;5.362038
2025/01/14 00:00:00;2025/01/14 19:00:00;ATMO SUD;FR93ZAG04;ZAG AVIGNON;FR03088;CARPENTRAS;Périurbaine;O3;Fond;Oui;mesures fixes;Max. journalier moy. hor.;44.5;44.45;µg-m3;100.0;100;100.0;R;1;44.060347;5.067413
2025/01/14 00:00:00;2025/01/14 19:00:00;AIRPARIF;FR11ZAG01;ZAG PARIS;FR04004;PARIS 18eme;Urbaine;O3;Fond;Oui;mesures fixes;Max. journalier moy. hor.;21.9;21.9;µg-m3;100.0;100;100.0;A;1;48.891666;2.346667
2025/01/14 00:00:00;2025/01/14 19:00:00;AIRPARIF;FR11ZAG01;ZAG PARIS;FR04017;NEUILLY-SUR-SEINE;Urbaine;O3;Fond;Oui;mesures fixes;Max. journalier moy. hor.;21.5;21.5;µg-m3;100.0;100;100.0;A;1;48.88139;2.278056
2025/01/14 00:00:00;2025/01/14 19:00:00;AIRPARIF;FR11ZAG01;ZAG PARIS;FR04023;CERGY-PONTOISE;Urbaine;O3;Fond;Oui;mesures fixes;Max. journalier moy. hor.;46.7;46.65;µg-m3;100.0;100;100.0;A;1;49.04639;2.043056
2025/01/14 00:00:00;2025/01/14 19:00:00;AIRPARIF;FR11ZAG01;ZAG PARIS;FR04029;VERSAILLES;Périurbaine;O3;Fond;Oui;mesures fixes;Max. journalier moy. hor.;22.1;22.05;µg-m3;100.0;100;100.0;A;1;48.799168;2.130556
2025/01/14 00:00:00;2025/01/14 19:00:00;AIRPARIF;FR11ZAG01;ZAG PARIS;FR04034;VITRY-SUR-SEINE;Urbaine;O3;Fond;Oui;mesures fixes;Max. journalier moy. hor.;11.7;11.65;µg-m3;100.0;100;100.0;A;1;48.775897;2.375788
2025/01/14 00:00:00;2025/01/14 19:00:00;AIRPARIF;FR11ZAG01;ZAG PARIS;FR04037;PARIS 13eme;Urbaine;O3;Fond;Oui;mesures fixes;Max. journalier moy. hor.;27.9;27.9;µg-m3;100.0;100;100.0;R;1;48.82861;2.360278
2025/01/14 00:00:00;2025/01/14 19:00:00;AIRPARIF;FR11ZRE01;ZR ILE-DE-FRANCE;FR04038;Zone Rurale SO;Rurale régionale;O3;Fond;Oui;mesures fixes;Max. journalier moy. hor.;45.1;45.1;µg-m3;100.0;100;100.0;A;1;48.581944;1.883333
2025/01/14 00:00:00;2025/01/14 19:00:00;AIRPARIF;FR11ZRE01;ZR ILE-DE-FRANCE;FR04048;Zone Rurale Nord;Rurale régionale;O3;Fond;Oui;mesures fixes;Max. journalier moy. hor.;52.8;52.75;µg-m3;100.0;100;100.0;R;1;49.100277;2.343889
2025/01/14 00:00:00;2025/01/14 19:00:00;AIRPARIF;FR11ZAG01;ZAG PARIS;FR04049;LES ULIS;Périurbaine;O3;Fond;Oui;mesures fixes;Max. journalier moy. hor.;17.7;17.65;µg-m3;100.0;100;100.0;A;1;48.679443;2.165556
2025/01/14 00:00:00;2025/01/14 19:00:00;AIRPARIF;FR11ZAG01;ZAG PARIS;FR04055;PARIS 1er Les Halles;Urbaine;O3;Fond;Oui;mesures fixes;Max. journalier moy. hor.;23.0;23.0;µg-m3;100.0;100;100.0;A;1;48.86212;2.344616
2025/01/14 00:00:00;2025/01/14 19:00:00;AIRPARIF;FR11ZAG01;ZAG PARIS;FR04063;MANTES-LA-JOLIE;Périurbaine;O3;Fond;Oui;mesures fixes;Max. journalier moy. hor.;36.8;36.8;µg-m3;79.0;100;79.0;R;1;48.9964;1.7033
2025/01/14 00:00:00;2025/01/14 19:00:00;AIRPARIF;FR11ZRE01;ZR ILE-DE-FRANCE;FR04066;Zone rurale Sud;Rurale régionale;O3;Fond;Oui;mesures fixes;Max. journalier moy. hor.;40.0;40.0;µg-m3;100.0;100;100.0;A;1;48.364166;2.236944
2025/01/14 00:00:00;2025/01/14 19:00:00;AIRPARIF;FR11ZAG01;ZAG PARIS;FR04069;MELUN;Périurbaine;O3;Fond;Oui;mesures fixes;Max. journalier moy. hor.;39.9;39.85;µg-m3;100.0;100;100.0;A;1;48.54139;2.661389
2025/01/14 00:00:00;2025/01/14 19:00:00;AIRPARIF;FR11ZAG01;ZAG PARIS;FR04098;LOGNES;Urbaine;O3;Fond;Oui;mesures fixes;Max. journalier moy. hor.;24.7;24.7;µg-m3;89.0;100;89.0;A;1;48.84028;2.635278
2025/01/14 00:00:00;2025/01/14 19:00:00;AIRPARIF;FR11ZAG01;ZAG PARIS;FR04100;VILLEMOMBLE;Urbaine;O3;Fond;Oui;mesures fixes;Max. journalier moy. hor.;20.5;20.5;µg-m3;100.0;100;100.0;R;1;48.881947;2.507222
2025/01/14 00:00:00;2025/01/14 19:00:00;AIRPARIF;FR11ZAG01;ZAG PARIS;FR04101;CHAMPIGNY-SUR-MARNE;Urbaine;O3;Fond;Oui;mesures fixes;Max. journalier moy. hor.;26.8;26.8;µg-m3;100.0;100;100.0;R;1;48.816387;2.5175
2025/01/14 00:00:00;2025/01/14 19:00:00;AIRPARIF;FR11ZRE01;ZR ILE-DE-FRANCE;FR04142;Zone Rurale Nord-Est;Rurale régionale;O3;Fond;Oui;mesures fixes;Max. journalier moy. hor.;47.6;47.6;µg-m3;100.0;100;100.0;R;1;49.028057;2.750278
2025/01/14 00:00:00;2025/01/14 19:00:00;AIRPARIF;FR11ZAG01;ZAG PARIS;FR04149;MONTGERON;Urbaine;O3;Fond;Oui;mesures fixes;Max. journalier moy. hor.;21.6;21.6;µg-m3;100.0;100;100.0;A;1;48.7067;2.4572
2025/01/14 00:00:00;2025/01/14 19:00:00;AIRPARIF;FR11ZRE01;ZR ILE-DE-FRANCE;FR04158;Zone Rurale NO;Rurale régionale;O3;Fond;Oui;mesures fixes;Max. journalier moy. hor.;58.5;58.5;µg-m3;100.0;100;100.0;R;1;49.063087;1.866381
2025/01/14 00:00:00;2025/01/14 19:00:00;AIRPARIF;FR11ZRE01;ZR ILE-DE-FRANCE;FR04181;RAMBOUILLET;Périurbaine;O3;Fond;Oui;mesures fixes;Max. journalier moy. hor.;47.0;46.95;µg-m3;100.0;100;100.0;A;1;48.63373;1.830529
2025/01/14 00:00:00;2025/01/14 19:00:00;AIRPARIF;FR11ZAG01;ZAG PARIS;FR04319;TREMBLAY-EN-FRANCE;Périurbaine;O3;Fond;Oui;mesures fixes;Max. journalier moy. hor.;22.8;22.75;µg-m3;100.0;100;100.0;A;1;48.95555;2.575278
2025/01/14 00:00:00;2025/01/14 19:00:00;AIRPARIF;FR11ZRE01;ZR ILE-DE-FRANCE;FR04324;Zone Rurale Est;Rurale régionale;O3;Fond;Oui;mesures fixes;Max. journalier moy. hor.;42.5;42.5;µg-m3;95.0;100;95.0;R;1;48.761665;3.058333
2025/01/14 00:00:00;2025/01/14 19:00:00;AIRPARIF;FR11ZRE01;ZR ILE-DE-FRANCE;FR04328;Zone Rurale SE;Rurale régionale;O3;Fond;Oui;mesures fixes;Max. journalier moy. hor.;44.7;44.7;µg-m3;100.0;100;100.0;A;1;48.3547;2.6453
2025/01/14 00:00:00;2025/01/14 19:00:00;ATMO NORMANDIE;FR28ZRE02;ZR NORMANDIE;FR05040;Honfleur Sce Tech.;Urbaine;O3;Fond;Oui;mesures fixes;Max. journalier moy. hor.;29.9;29.875;µg-m3;100.0;100;100.0;R;1;49.415108;0.2437
2025/01/14 00:00:00;2025/01/14 19:00:00;ATMO NORMANDIE;FR28ZAR01;ZAR LE-HAVRE;FR05074;Le Havre Ec. Herriot;Urbaine;O3;Fond;Oui;mesures fixes;Max. journalier moy. hor.;42.1;42.125;µg-m3;100.0;100;100.0;R;1;49.48963;0.100703
2025/01/14 00:00:00;2025/01/14 19:00:00;ATMO NORMANDIE;FR28ZAR01;ZAR LE-HAVRE;FR05080;Rogerville Mairie;Périurbaine;O3;Fond;Oui;mesures fixes;Max. journalier moy. hor.;48.1;48.1;µg-m3;100.0;100;100.0;R;1;49.50362;0.266872
2025/01/14 00:00:00;2025/01/14 19:00:00;ATMO NORMANDIE;FR28ZRE02;ZR NORMANDIE;FR05082;Touques;Périurbaine;O3;Fond;Oui;mesures fixes;Max. journalier moy. hor.;54.6;54.6;µg-m3;100.0;100;100.0;A;1;49.348;0.109253
2025/01/14 00:00:00;2025/01/14 19:00:00;ATMO NORMANDIE;FR28ZRE02;ZR NORMANDIE;FR05087;Maison Parc Brotonne;Rurale régionale;O3;Fond;Oui;mesures fixes;Max. journalier moy. hor.;29.3;29.325;µg-m3;100.0;100;100.0;A;1;49.498295;0.758833
2025/01/14 00:00:00;2025/01/14 19:00:00;ATMO NORMANDIE;FR28ZRE02;ZR NORMANDIE;FR05088;Fécamp;Périurbaine;O3;Fond;Oui;mesures fixes;Max. journalier moy. hor.;34.7;34.65;µg-m3;100.0;100;100.0;R;1;49.75;0.4159
2025/01/14 00:00:00;2025/01/14 19:00:00;ATMO NORMANDIE;FR28ZAR01;ZAR LE-HAVRE;FR05090;Le Havre ville-haute;Urbaine;O3;Fond;Oui;mesures fixes;Max. journalier moy. hor.;40.8;40.825;µg-m3;89.0;100;89.0;R;1;49.514686;0.100645
2025/01/14 00:00:00;2025/01/14 19:00:00;ATMO HAUTS DE FRANCE;FR32ZRE01;ZR HAUTS-DE-FRANCE;FR06007;Maubeuge Joyeuse;Urbaine;O3;Fond;Oui;mesures fixes;Max. journalier moy. hor.;43.6;43.625;µg-m3;100.0;100;100.0;A;1;50.27936;3.97691
2025/01/14 00:00:00;2025/01/14 19:00:00;ATMO HAUTS DE FRANCE;FR32ZAG01;ZAG BLDV;FR06011;Denain Villars;Périurbaine;O3;Fond;Oui;mesures indicatives;Max. journalier moy. hor.;43.1;43.075;µg-m3;100.0;100;100.0;A;1;50.32276;3.39593
2025/01/14 00:00:00;2025/01/14 19:00:00;ATMO HAUTS DE FRANCE;FR32ZRE01;ZR HAUTS-DE-FRANCE;FR06133;Cartignies;Rurale près des villes;O3;Fond;Oui;mesures indicatives;Max. journalier moy. hor.;49.6;49.625;µg-m3;100.0;100;100.0;A;1;50.09225;3.85003
2025/01/14 00:00:00;2025/01/14 19:00:00;ATMO AUVERGNE-RHÔNE-ALPES;FR84ZAG04;ZAG CLERMONT-FERRAND;FR07004;Montferrand;Urbaine;O3;Fond;Oui;mesures fixes;Max. journalier moy. hor.;30.7;30.725;µg-m3;100.0;100;100.0;A;1;45.79728;3.113833
2025/01/14 00:00:00;2025/01/14 19:00:00;ATMO AUVERGNE-RHÔNE-ALPES;FR84ZRE02;ZR AUVERGNE-RHONE-ALPES;FR07022;Paray le Fresil;Rurale régionale;O3;Fond;Oui;mesures indicatives;Max. journalier moy. hor.;52.7;52.7;µg-m3;100.0;100;100.0;A;1;46.652668;3.600667
2025/01/14 00:00:00;2025/01/14 19:00:00;ATMO AUVERGNE-RHÔNE-ALPES;FR84ZRE02;ZR AUVERGNE-RHONE-ALPES;FR07031;Rageade;Rurale régionale;O3;Fond;Oui;mesures indicatives;Max. journalier moy. hor.;80.6;80.575;µg-m3;100.0;100;100.0;A;1;45.10472;3.277361
2025/01/14 00:00:00;2025/01/14 19:00:00;ATMO AUVERGNE-RHÔNE-ALPES;FR84ZRE02;ZR AUVERGNE-RHONE-ALPES;FR07052;Aurillac-Lagarde;Urbaine;O3;Fond;Oui;mesures indicatives;Max. journalier moy. hor.;54.9;54.875;µg-m3;100.0;100;100.0;A;1;44.92008;2.441082
2025/01/14 00:00:00;2025/01/14 19:00:00;ATMO AUVERGNE-RHÔNE-ALPES;FR84ZRE02;ZR AUVERGNE-RHONE-ALPES;FR07054;Le Puy-Causans;Urbaine;O3;Fond;Oui;mesures indicatives;Max. journalier moy. hor.;62.2;62.2;µg-m3;100.0;100;100.0;A;1;45.039001;3.887001
2025/01/14 00:00:00;2025/01/14 19:00:00;ATMO AUVERGNE-RHÔNE-ALPES;FR84ZRE02;ZR AUVERGNE-RHONE-ALPES;FR07056;Pays du Mezenc;Rurale régionale;O3;Fond;Oui;mesures fixes;Max. journalier moy. hor.;96.1;96.1;µg-m3;100.0;100;100.0;A;1;44.98377;4.226006
2025/01/14 00:00:00;2025/01/14 19:00:00;ATMO AUVERGNE-RHÔNE-ALPES;FR84ZRE02;ZR AUVERGNE-RHONE-ALPES;FR07057;Moulins Centre;Urbaine;O3;Fond;Oui;mesures fixes;Max. journalier moy. hor.;53.5;53.45;µg-m3;100.0;100;100.0;A;1;46.5619722;3.34063888888888
2025/01/14 00:00:00;2025/01/14 19:00:00;ATMO AUVERGNE-RHÔNE-ALPES;FR84ZRE02;ZR AUVERGNE-RHONE-ALPES;FR07058;Montluçon;Urbaine;O3;Fond;Oui;mesures indicatives;Max. journalier moy. hor.;38.0;38.025;µg-m3;100.0;100;100.0;A;1;46.340723;2.593945
2025/01/14 00:00:00;2025/01/14 19:00:00;ATMO AUVERGNE-RHÔNE-ALPES;FR84ZRE02;ZR AUVERGNE-RHONE-ALPES;FR07059;Vichy;Urbaine;O3;Fond;Oui;mesures indicatives;Max. journalier moy. hor.;48.7;48.725;µg-m3;100.0;100;100.0;A;1;46.130431;3.425694
2025/01/14 00:00:00;2025/01/14 19:00:00;ATMO AUVERGNE-RHÔNE-ALPES;FR84ZAG04;ZAG CLERMONT-FERRAND;FR07060;Royat Périurbaine;Périurbaine;O3;Fond;Oui;mesures fixes;Max. journalier moy. hor.;56.5;56.5;µg-m3;100.0;100;100.0;A;1;45.764111;3.046111
2025/01/14 00:00:00;2025/01/14 19:00:00;ATMO AUVERGNE-RHÔNE-ALPES;FR84ZAG04;ZAG CLERMONT-FERRAND;FR07061;Riom Périurbaine;Périurbaine;O3;Fond;Oui;mesures indicatives;Max. journalier moy. hor.;51.8;51.75;µg-m3;100.0;100;100.0;A;1;45.89674;3.122254
2025/01/14 00:00:00;2025/01/14 19:00:00;ATMO OCCITANIE;FR76ZAG02;ZAG MONTPELLIER;FR08016;Montpellier Prés d'Arènes;Urbaine;O3;Fond;Oui;mesures fixes;Max. journalier moy. hor.;50.1;50.1;µg-m3;100.0;100;100.0;R;1;43.5915;3.88681
2025/01/14 00:00:00;2025/01/14 19:00:00;ATMO OCCITANIE;FR76ZAG02;ZAG MONTPELLIER;FR08017;Montpellier Périurbaine Sud (Lattes);Périurbaine;O3;Fond;Oui;mesures indicatives;Max. journalier moy. hor.;57.3;57.3;µg-m3;95.0;100;95.0;R;1;43.5705;3.9118
2025/01/14 00:00:00;2025/01/14 19:00:00;ATMO OCCITANIE;FR76ZAG02;ZAG MONTPELLIER;FR08018;Montpellier St Gely;Périurbaine;O3;Fond;Oui;mesures fixes;Max. journalier moy. hor.;57.2;57.225;µg-m3;100.0;100;100.0;A;1;43.6926;3.80021
2025/01/14 00:00:00;2025/01/14 19:00:00;ATMO OCCITANIE;FR76ZRE01;ZR OCCITANIE;FR08022;Agathois-piscénois;Périurbaine;O3;Fond;Oui;mesures fixes;Max. journalier moy. hor.;51.5;51.5;µg-m3;100.0;100;100.0;A;1;43.2875;3.50484
2025/01/14 00:00:00;2025/01/14 19:00:00;ATMO OCCITANIE;FR76ZRE01;ZR OCCITANIE;FR08023;Biterrois-Narbonnais;Rurale régionale;O3;Fond;Oui;mesures fixes;Max. journalier moy. hor.;58.0;57.975;µg-m3;100.0;100;100.0;R;1;43.4068;3.18878
2025/01/14 00:00:00;2025/01/14 19:00:00;ATMO OCCITANIE;FR76ZRE01;ZR OCCITANIE;FR08209;Gard Rhodanien2;Rurale près des villes;O3;Fond;Oui;mesures fixes;Max. journalier moy. hor.;53.9;53.875;µg-m3;100.0;100;100.0;R;1;43.9426;4.67958
2025/01/14 00:00:00;2025/01/14 19:00:00;ATMO OCCITANIE;FR76ZAR02;ZAR NIMES;FR08614;Nimes Gauzy;Urbaine;O3;Fond;Oui;mesures fixes;Max. journalier moy. hor.;52.5;52.475;µg-m3;100.0;100;100.0;A;1;43.8344;4.3744
2025/01/14 00:00:00;2025/01/14 19:00:00;ATMO OCCITANIE;FR76ZAR02;ZAR NIMES;FR08617;Nimes La Calmette;Périurbaine;O3;Fond;Oui;mesures fixes;Max. journalier moy. hor.;51.9;51.9;µg-m3;95.0;100;95.0;A;1;43.9254;4.26581
2025/01/14 00:00:00;2025/01/14 19:00:00;ATMO OCCITANIE;FR76ZAR01;ZAR PERPIGNAN;FR08712;Perpignan St Esteve;Périurbaine;O3;Fond;Oui;mesures fixes;Max. journalier moy. hor.;63.5;63.475;µg-m3;95.0;100;95.0;R;1;42.7198;2.83988
2025/01/14 00:00:00;2025/01/14 19:00:00;ATMO OCCITANIE;FR76ZAR01;ZAR PERPIGNAN;FR08714;Perpignan Les Carmes;Urbaine;O3;Fond;Oui;mesures fixes;Max. journalier moy. hor.;63.1;63.05;µg-m3;100.0;100;100.0;A;1;42.6955;2.90053
2025/01/14 00:00:00;2025/01/14 19:00:00;ATMO NOUVELLE-AQUITAINE;FR75ZRE02;ZR NOUVELLE-AQUITAINE;FR09003;place de VERDUN;Urbaine;O3;Fond;Oui;mesures fixes;Max. journalier moy. hor.;49.2;49.2;µg-m3;100.0;100;100.0;A;1;46.162647;-1.153684
2025/01/14 00:00:00;2025/01/14 19:00:00;ATMO NOUVELLE-AQUITAINE;FR75ZRE02;ZR NOUVELLE-AQUITAINE;FR09008;Aytré;Périurbaine;O3;Fond;Oui;mesures fixes;Max. journalier moy. hor.;51.4;51.375;µg-m3;100.0;100;100.0;A;1;46.135134;-1.117086
2025/01/14 00:00:00;2025/01/14 19:00:00;ATMO NOUVELLE-AQUITAINE;FR75ZRE02;ZR NOUVELLE-AQUITAINE;FR09015;Les Couronneries;Urbaine;O3;Fond;Oui;mesures fixes;Max. journalier moy. hor.;50.5;50.525;µg-m3;100.0;100;100.0;A;1;46.586958;0.358458
2025/01/14 00:00:00;2025/01/14 19:00:00;ATMO NOUVELLE-AQUITAINE;FR75ZRE02;ZR NOUVELLE-AQUITAINE;FR09103;Square Pablo Casals;Urbaine;O3;Fond;Oui;mesures fixes;Max. journalier moy. hor.;50.5;50.525;µg-m3;100.0;100;100.0;A;1;45.647428;0.167162
2025/01/14 00:00:00;2025/01/14 19:00:00;ATMO NOUVELLE-AQUITAINE;FR75ZRE02;ZR NOUVELLE-AQUITAINE;FR09302;Zoodyssée Chizé;Rurale régionale;O3;Fond;Oui;mesures fixes;Max. journalier moy. hor.;61.7;61.65;µg-m3;100.0;100;100.0;A;1;46.143234;-0.395913
2025/01/14 00:00:00;2025/01/14 19:00:00;ATMO NOUVELLE-AQUITAINE;FR75ZRE02;ZR NOUVELLE-AQUITAINE;FR09303;Niort Venise;Urbaine;O3;Fond;Oui;mesures fixes;Max. journalier moy. hor.;54.8;54.775;µg-m3;100.0;100;100.0;A;1;46.320028;-0.482861
2025/01/14 00:00:00;2025/01/14 19:00:00;ATMO NOUVELLE-AQUITAINE;FR75ZRE02;ZR NOUVELLE-AQUITAINE;FR09304;AIRVAULT - Stade Laillé;Périurbaine;O3;Fond;Oui;mesures fixes;Max. journalier moy. hor.;51.8;51.825;µg-m3;100.0;100;100.0;A;1;46.823796;-0.135634
2025/01/14 00:00:00;2025/01/14 19:00:00;ATMO NOUVELLE-AQUITAINE;FR75ZRE02;ZR NOUVELLE-AQUITAINE;FR09404;Poitiers Centre  Augouard;Urbaine;O3;Fond;Oui;mesures fixes;Max. journalier moy. hor.;44.8;44.825;µg-m3;95.0;100;95.0;A;1;46.583998;0.345582
2025/01/14 00:00:00;2025/01/14 19:00:00;ATMO HAUTS DE FRANCE;FR32ZAR01;ZAR COTE-D-OPALE;FR10017;St Pol mer - cheminots;Urbaine;O3;Fond;Oui;mesures fixes;Max. journalier moy. hor.;42.7;42.675;µg-m3;100.0;100;100.0;R;1;51.032761;2.332358
2025/01/14 00:00:00;2025/01/14 19:00:00;ATMO HAUTS DE FRANCE;FR32ZAR01;ZAR COTE-D-OPALE;FR10025;Sangatte;Périurbaine;O3;Fond;Oui;mesures fixes;Max. journalier moy. hor.;54.4;54.35;µg-m3;100.0;100;100.0;A;1;50.94989;1.76917
2025/01/14 00:00:00;2025/01/14 19:00:00;ATMO HAUTS DE FRANCE;FR32ZAR01;ZAR COTE-D-OPALE;FR10041;St Omer Ribot;Urbaine;O3;Fond;Oui;mesures indicatives;Max. journalier moy. hor.;41.3;41.325;µg-m3;100.0;100;100.0;A;1;50.74823;2.25978
2025/01/14 00:00:00;2025/01/14 19:00:00;ATMO HAUTS DE FRANCE;FR32ZRE01;ZR HAUTS-DE-FRANCE;FR10132;Campagne les B.;Rurale régionale;O3;Fond;Oui;mesures fixes;Max. journalier moy. hor.;56.4;56.4;µg-m3;100.0;100;100.0;A;1;50.61048;1.99145
2025/01/14 00:00:00;2025/01/14 19:00:00;ATMO HAUTS DE FRANCE;FR32ZAG02;ZAG LILLE;FR11026;Halluin stade;Périurbaine;O3;Fond;Oui;mesures fixes;Max. journalier moy. hor.;37.0;36.975;µg-m3;100.0;100;100.0;A;1;50.775482;3.12568
2025/01/14 00:00:00;2025/01/14 19:00:00;ATMO HAUTS DE FRANCE;FR32ZAG02;ZAG LILLE;FR11038;Tourcoing Houpline;Urbaine;O3;Fond;Oui;mesures fixes;Max. journalier moy. hor.;35.6;35.575;µg-m3;100.0;100;100.0;A;1;50.733333;3.173611
2025/01/14 00:00:00;2025/01/14 19:00:00;ATMO HAUTS DE FRANCE;FR32ZAG02;ZAG LILLE;FR11114;Wattignies;Périurbaine;O3;Fond;Oui;mesures fixes;Max. journalier moy. hor.;38.4;38.4;µg-m3;95.0;100;95.0;A;1;50.59774;3.04946
2025/01/14 00:00:00;2025/01/14 19:00:00;ATMO OCCITANIE;FR76ZAG01;ZAG TOULOUSE;FR12004;ECOLE M.JACQUIER;Urbaine;O3;Fond;Oui;mesures fixes;Max. journalier moy. hor.;58.1;58.05;µg-m3;100.0;100;100.0;A;1;43.575694;1.418064
2025/01/14 00:00:00;2025/01/14 19:00:00;ATMO OCCITANIE;FR76ZRE01;ZR OCCITANIE;FR12020;PEYRUSSE;Rurale nationale;O3;Fond;Oui;mesures fixes;Max. journalier moy. hor.;67.6;67.575;µg-m3;100.0;100;100.0;A;1;43.6287;0.179069
2025/01/14 00:00:00;2025/01/14 19:00:00;ATMO OCCITANIE;FR76ZRE01;ZR OCCITANIE;FR12029;GAUDONVILLE;Rurale régionale;O3;Fond;Oui;mesures fixes;Max. journalier moy. hor.;66.2;66.225;µg-m3;100.0;100;100.0;A;1;43.883933;0.845617
2025/01/14 00:00:00;2025/01/14 19:00:00;ATMO OCCITANIE;FR76ZAG01;ZAG TOULOUSE;FR12030;Toulouse Berthelot;Urbaine;O3;Fond;Oui;mesures fixes;Max. journalier moy. hor.;62.8;62.75;µg-m3;100.0;100;100.0;A;1;43.587344;1.444003
2025/01/14 00:00:00;2025/01/14 19:00:00;ATMO OCCITANIE;FR76ZRE01;ZR OCCITANIE;FR12031;BELESTA EN LAURAGAIS;Rurale régionale;O3;Fond;Oui;mesures fixes;Max. journalier moy. hor.;53.7;53.725;µg-m3;100.0;100;100.0;A;1;43.44139;1.821944
2025/01/14 00:00:00;2025/01/14 19:00:00;ATMO OCCITANIE;FR76ZAG01;ZAG TOULOUSE;FR12041;SICOVAL;Périurbaine;O3;Fond;Oui;mesures fixes;Max. journalier moy. hor.;62.1;62.125;µg-m3;100.0;100;100.0;R;1;43.457306;1.571469
2025/01/14 00:00:00;2025/01/14 19:00:00;ATMO OCCITANIE;FR76ZRE01;ZR OCCITANIE;FR12042;LOURDES LAPACCA;Urbaine;O3;Fond;Oui;mesures fixes;Max. journalier moy. hor.;70.6;70.575;µg-m3;100.0;100;100.0;A;1;43.096247;-0.040497
2025/01/14 00:00:00;2025/01/14 19:00:00;ATMO OCCITANIE;FR76ZRE01;ZR OCCITANIE;FR12052;Tarbes lycée Dupuy;Urbaine;O3;Fond;Oui;mesures fixes;Max. journalier moy. hor.;78.1;78.125;µg-m3;100.0;100;100.0;R;1;43.230297;0.062339
2025/01/14 00:00:00;2025/01/14 19:00:00;ATMO OCCITANIE;FR76ZRE01;ZR OCCITANIE;FR12053;Stade Travet CASTRES;Urbaine;O3;Fond;Oui;mesures fixes;Max. journalier moy. hor.;64.7;64.7;µg-m3;100.0;100;100.0;R;1;43.610497;2.23015
2025/01/14 00:00:00;2025/01/14 19:00:00;ATMO OCCITANIE;FR76ZRE01;ZR OCCITANIE;FR12095;Rodez;Urbaine;O3;Fond;Oui;mesures fixes;Max. journalier moy. hor.;56.2;56.175;µg-m3;100.0;100;100.0;A;1;44.35699225;2.57070422
2025/01/14 00:00:00;2025/01/14 19:00:00;ATMO GRAND EST;FR44ZRE01;ZR GRAND-EST;FR14008;REVIN;Rurale nationale;O3;Fond;Oui;mesures fixes;Max. journalier moy. hor.;66.0;66.025;µg-m3;100.0;100;100.0;R;1;49.90778;4.63
2025/01/14 00:00:00;2025/01/14 19:00:00;ATMO GRAND EST;FR44ZAR01;ZAR REIMS;FR14010;BETHENY;Périurbaine;O3;Fond;Oui;mesures fixes;Max. journalier moy. hor.;36.1;36.075;µg-m3;100.0;100;100.0;R;1;49.28222;4.051111
2025/01/14 00:00:00;2025/01/14 19:00:00;ATMO GRAND EST;FR44ZAR01;ZAR REIMS;FR14012;Jean d Aulan;Urbaine;O3;Fond;Oui;mesures fixes;Max. journalier moy. hor.;34.0;34.0;µg-m3;100.0;100;100.0;A;1;49.224167;4.020556
2025/01/14 00:00:00;2025/01/14 19:00:00;ATMO GRAND EST;FR44ZRE01;ZR GRAND-EST;FR14022;CHALONS;Urbaine;O3;Fond;Oui;mesures fixes;Max. journalier moy. hor.;41.1;41.05;µg-m3;100.0;100;100.0;A;1;48.962223;4.36
2025/01/14 00:00:00;2025/01/14 19:00:00;ATMO GRAND EST;FR44ZRE01;ZR GRAND-EST;FR14032;ST PARRES AUX TERTRE;Périurbaine;O3;Fond;Oui;mesures fixes;Max. journalier moy. hor.;44.3;44.25;µg-m3;100.0;100;100.0;R;1;48.299168;4.117222
2025/01/14 00:00:00;2025/01/14 19:00:00;ATMO GRAND EST;FR44ZRE01;ZR GRAND-EST;FR14042;St DIZIER L. Michel;Urbaine;O3;Fond;Oui;mesures fixes;Max. journalier moy. hor.;44.8;44.825;µg-m3;100.0;100;100.0;R;1;48.645836;4.966111
2025/01/14 00:00:00;2025/01/14 19:00:00;ATMO GRAND EST;FR44ZRE01;ZR GRAND-EST;FR14051;CHARLEVILLE;Urbaine;O3;Fond;Oui;mesures fixes;Max. journalier moy. hor.;39.3;39.325;µg-m3;100.0;100;100.0;A;1;49.745277;4.719167
2025/01/14 00:00:00;2025/01/14 19:00:00;ATMO AUVERGNE-RHÔNE-ALPES;FR84ZAG02;ZAG GRENOBLE;FR15013;Champ sur Drac;Périurbaine;O3;Fond;Oui;mesures fixes;Max. journalier moy. hor.;38.7;38.725;µg-m3;100.0;100;100.0;A;1;45.07954;5.728653
2025/01/14 00:00:00;2025/01/14 19:00:00;ATMO AUVERGNE-RHÔNE-ALPES;FR84ZAG02;ZAG GRENOBLE;FR15018;Voiron Urbain;Urbaine;O3;Fond;Oui;mesures indicatives;Max. journalier moy. hor.;41.4;41.4;µg-m3;100.0;100;100.0;R;1;45.360176;5.589419
2025/01/14 00:00:00;2025/01/14 19:00:00;ATMO AUVERGNE-RHÔNE-ALPES;FR84ZAG02;ZAG GRENOBLE;FR15038;St Martin d'Heres;Urbaine;O3;Fond;Oui;mesures fixes;Max. journalier moy. hor.;36.6;36.575;µg-m3;100.0;100;100.0;A;1;45.1828;5.7531
2025/01/14 00:00:00;2025/01/14 19:00:00;ATMO AUVERGNE-RHÔNE-ALPES;FR84ZAG02;ZAG GRENOBLE;FR15043;Grenoble Les Frenes;Urbaine;O3;Fond;Oui;mesures fixes;Max. journalier moy. hor.;30.8;30.775;µg-m3;95.0;100;95.0;A;1;45.1619;5.7356
2025/01/14 00:00:00;2025/01/14 19:00:00;ATMO AUVERGNE-RHÔNE-ALPES;FR84ZAG02;ZAG GRENOBLE;FR15045;Grenoble PeriurbSud;Périurbaine;O3;Fond;Oui;mesures indicatives;Max. journalier moy. hor.;35.7;35.65;µg-m3;100.0;100;100.0;A;1;45.0578;5.6767
2025/01/14 00:00:00;2025/01/14 19:00:00;ATMO AUVERGNE-RHÔNE-ALPES;FR84ZAG02;ZAG GRENOBLE;FR15048;Gresivaudan Periurb;Périurbaine;O3;Fond;Oui;mesures fixes;Max. journalier moy. hor.;42.7;42.725;µg-m3;100.0;100;100.0;A;1;45.2797;5.8822
2025/01/14 00:00:00;2025/01/14 19:00:00;ATMO GRAND EST;FR44ZRE01;ZR GRAND-EST;FR16017;Nord-Est Alsace;Rurale régionale;O3;Fond;Oui;mesures fixes;Max. journalier moy. hor.;42.2;42.2;µg-m3;100.0;100;100.0;A;1;48.919357;8.158458
2025/01/14 00:00:00;2025/01/14 19:00:00;ATMO GRAND EST;FR44ZAG01;ZAG STRASBOURG;FR16029;Strasbourg Nord;Urbaine;O3;Fond;Oui;mesures fixes;Max. journalier moy. hor.;28.7;28.725;µg-m3;100.0;100;100.0;A;1;48.610363;7.781631
2025/01/14 00:00:00;2025/01/14 19:00:00;ATMO GRAND EST;FR44ZRE01;ZR GRAND-EST;FR16031;Vosges du Nord;Rurale régionale;O3;Fond;Oui;mesures fixes;Max. journalier moy. hor.;49.7;49.725;µg-m3;100.0;100;100.0;A;1;48.85731;7.314175
2025/01/14 00:00:00;2025/01/14 19:00:00;ATMO GRAND EST;FR44ZAG01;ZAG STRASBOURG;FR16041;Strasbourg Sud 2;Périurbaine;O3;Fond;Oui;mesures fixes;Max. journalier moy. hor.;29.8;29.8;µg-m3;84.0;100;84.0;R;1;48.5157;7.687819
2025/01/14 00:00:00;2025/01/14 19:00:00;ATMO GRAND EST;FR44ZRE01;ZR GRAND-EST;FR16064;Colmar Sud;Périurbaine;O3;Fond;Oui;mesures fixes;Max. journalier moy. hor.;37.0;37.025;µg-m3;100.0;100;100.0;A;1;48.065414;7.333139
2025/01/14 00:00:00;2025/01/14 19:00:00;ATMO GRAND EST;FR44ZRE01;ZR GRAND-EST;FR16065;Mulhouse Est;Périurbaine;O3;Fond;Oui;mesures fixes;Max. journalier moy. hor.;38.0;37.95;µg-m3;100.0;100;100.0;A;1;47.723106;7.341603
2025/01/14 00:00:00;2025/01/14 19:00:00;ATMO GRAND EST;FR44ZRE01;ZR GRAND-EST;FR16066;Mulhouse Sud 2;Urbaine;O3;Fond;Oui;mesures fixes;Max. journalier moy. hor.;40.2;40.225;µg-m3;100.0;100;100.0;A;1;47.737415;7.309075
2025/01/14 00:00:00;2025/01/14 19:00:00;ATMO GRAND EST;FR44ZRE01;ZR GRAND-EST;FR16302;Donon Vosges Moyennes 2;Rurale nationale;O3;Fond;Oui;mesures fixes;Max. journalier moy. hor.;84.3;84.275;µg-m3;100.0;100;100.0;A;1;48.492992;7.1298
2025/01/14 00:00:00;2025/01/14 19:00:00;ATMO HAUTS DE FRANCE;FR32ZAR02;ZAR AMIENS;FR18035;Salouel;Périurbaine;O3;Fond;Oui;mesures fixes;Max. journalier moy. hor.;52.6;52.625;µg-m3;100.0;100;100.0;A;1;49.86889;2.239806
2025/01/14 00:00:00;2025/01/14 19:00:00;ATMO HAUTS DE FRANCE;FR32ZRE01;ZR HAUTS-DE-FRANCE;FR18039;Arrest;Rurale régionale;O3;Fond;Oui;mesures fixes;Max. journalier moy. hor.;53.2;53.15;µg-m3;100.0;100;100.0;A;1;50.129448;1.610833
2025/01/14 00:00:00;2025/01/14 19:00:00;ATMO HAUTS DE FRANCE;FR32ZRE01;ZR HAUTS-DE-FRANCE;FR18042;P. Roth St Quentin;Urbaine;O3;Fond;Oui;mesures fixes;Max. journalier moy. hor.;37.6;37.575;µg-m3;100.0;100;100.0;A;1;49.851334;3.284
2025/01/14 00:00:00;2025/01/14 19:00:00;ATMO HAUTS DE FRANCE;FR32ZAR03;ZAR CREIL;FR18043;Faiencerie Creil;Urbaine;O3;Fond;Oui;mesures fixes;Max. journalier moy. hor.;27.7;27.65;µg-m3;100.0;100;100.0;A;1;49.259552;2.474397
2025/01/14 00:00:00;2025/01/14 19:00:00;ATMO HAUTS DE FRANCE;FR32ZAR02;ZAR AMIENS;FR18053;St Pierre Amiens;Urbaine;O3;Fond;Oui;mesures fixes;Max. journalier moy. hor.;38.2;38.15;µg-m3;100.0;100;100.0;A;1;49.901667;2.304597
2025/01/14 00:00:00;2025/01/14 19:00:00;ATMO HAUTS DE FRANCE;FR32ZRE01;ZR HAUTS-DE-FRANCE;FR18057;Neuilly-Saint-Front;Rurale régionale;O3;Fond;Oui;mesures indicatives;Max. journalier moy. hor.;43.7;43.675;µg-m3;100.0;100;100.0;A;1;49.174931;3.260819
2025/01/14 00:00:00;2025/01/14 19:00:00;AIR BREIZH;FR53ZAR01;ZAR BREST;FR19012;Brest Mace;Urbaine;O3;Fond;Oui;mesures fixes;Max. journalier moy. hor.;58.5;58.45;µg-m3;100.0;100;100.0;A;1;48.38618;-4.4866
2025/01/14 00:00:00;2025/01/14 19:00:00;AIR BREIZH;FR53ZAR01;ZAR BREST;FR19016;BREST Plouzané;Périurbaine;O3;Fond;Oui;mesures fixes;Max. journalier moy. hor.;60.8;60.775;µg-m3;100.0;100;100.0;A;1;48.359444;-4.568055
2025/01/14 00:00:00;2025/01/14 19:00:00;AIR BREIZH;FR53ZAG01;ZAG RENNES;FR19018;MORDELLES BELLAIS;Périurbaine;O3;Fond;Oui;mesures fixes;Max. journalier moy. hor.;54.4;54.375;µg-m3;100.0;100;100.0;R;1;48.082883;-1.834583
2025/01/14 00:00:00;2025/01/14 19:00:00;AIR BREIZH;FR53ZRE01;ZR BRETAGNE;FR19020;Kergoff;Rurale nationale;O3;Fond;Oui;mesures fixes;Max. journalier moy. hor.;63.2;63.175;µg-m3;100.0;100;100.0;A;1;48.261963;-2.943631
2025/01/14 00:00:00;2025/01/14 19:00:00;AIR BREIZH;FR53ZRE01;ZR BRETAGNE;FR19032;Lorient B. Bissonnet;Urbaine;O3;Fond;Oui;mesures fixes;Max. journalier moy. hor.;50.1;50.05;µg-m3;100.0;100;100.0;R;1;47.7425;-3.39501
2025/01/14 00:00:00;2025/01/14 19:00:00;AIR BREIZH;FR53ZRE01;ZR BRETAGNE;FR19033;Vannes UTA;Urbaine;O3;Fond;Oui;mesures fixes;Max. journalier moy. hor.;47.7;47.7;µg-m3;100.0;100;100.0;A;1;47.64892;-2.76399
2025/01/14 00:00:00;2025/01/14 19:00:00;AIR BREIZH;FR53ZAG01;ZAG RENNES;FR19039;Rennes Thabor;Urbaine;O3;Fond;Oui;mesures fixes;Max. journalier moy. hor.;29.4;29.35;µg-m3;100.0;100;100.0;R;1;48.11521;-1.673088
2025/01/14 00:00:00;2025/01/14 19:00:00;AIR BREIZH;FR53ZRE01;ZR BRETAGNE;FR19053;Quimper Zola;Urbaine;O3;Fond;Oui;mesures fixes;Max. journalier moy. hor.;44.5;44.45;µg-m3;100.0;100;100.0;A;1;47.986606;-4.097658
2025/01/14 00:00:00;2025/01/14 19:00:00;AIR BREIZH;FR53ZRE01;ZR BRETAGNE;FR19082;StMalo Rocabey;Périurbaine;O3;Fond;Oui;mesures fixes;Max. journalier moy. hor.;45.1;45.125;µg-m3;100.0;100;100.0;R;1;48.65306;-2.00268
2025/01/14 00:00:00;2025/01/14 19:00:00;ATMO AUVERGNE-RHÔNE-ALPES;FR84ZAG01;ZAG LYON;FR20037;TERNAY;Périurbaine;O3;Fond;Oui;mesures fixes;Max. journalier moy. hor.;34.3;34.275;µg-m3;100.0;100;100.0;A;1;45.6019;4.8022
2025/01/14 00:00:00;2025/01/14 19:00:00;ATMO AUVERGNE-RHÔNE-ALPES;FR84ZAG01;ZAG LYON;FR20047;COTIERE AIN;Périurbaine;O3;Fond;Oui;mesures fixes;Max. journalier moy. hor.;42.9;42.85;µg-m3;100.0;100;100.0;A;1;45.823223;4.953958
2025/01/14 00:00:00;2025/01/14 19:00:00;ATMO AUVERGNE-RHÔNE-ALPES;FR84ZAG01;ZAG LYON;FR20048;SAINT EXUPERY;Périurbaine;O3;Fond;Oui;mesures fixes;Max. journalier moy. hor.;38.3;38.3;µg-m3;100.0;100;100.0;A;1;45.7533;5.0722
2025/01/14 00:00:00;2025/01/14 19:00:00;ATMO AUVERGNE-RHÔNE-ALPES;FR84ZRE02;ZR AUVERGNE-RHONE-ALPES;FR20049;HAUT BEAUJOLAIS;Rurale près des villes;O3;Fond;Oui;mesures fixes;Max. journalier moy. hor.;60.1;60.1;µg-m3;100.0;100;100.0;A;1;45.96141;4.465711
2025/01/14 00:00:00;2025/01/14 19:00:00;ATMO AUVERGNE-RHÔNE-ALPES;FR84ZAG01;ZAG LYON;FR20062;LYON Centre;Urbaine;O3;Fond;Oui;mesures fixes;Max. journalier moy. hor.;34.8;34.75;µg-m3;100.0;100;100.0;A;1;45.757732;4.854214
2025/01/14 00:00:00;2025/01/14 19:00:00;ATMO AUVERGNE-RHÔNE-ALPES;FR84ZAG01;ZAG LYON;FR20077;Villefranche Centre ;Urbaine;O3;Fond;Oui;mesures fixes;Max. journalier moy. hor.;31.1;31.1;µg-m3;89.0;100;89.0;R;1;45.990112;4.715566
2025/01/14 00:00:00;2025/01/14 19:00:00;ATMO NORMANDIE;FR28ZAR02;ZAR CAEN;FR21001;Caen Chemin-Vert;Urbaine;O3;Fond;Oui;mesures fixes;Max. journalier moy. hor.;54.9;54.875;µg-m3;100.0;100;100.0;R;1;49.19222;-0.391111
2025/01/14 00:00:00;2025/01/14 19:00:00;ATMO NORMANDIE;FR28ZAR02;ZAR CAEN;FR21019;IFS Caen sud;Urbaine;O3;Fond;Oui;mesures fixes;Max. journalier moy. hor.;32.6;32.6;µg-m3;100.0;100;100.0;A;1;49.15167;-0.352778
2025/01/14 00:00:00;2025/01/14 19:00:00;ATMO NORMANDIE;FR28ZRE02;ZR NORMANDIE;FR21031;Alençon Météo-France;Périurbaine;O3;Fond;Oui;mesures fixes;Max. journalier moy. hor.;42.7;42.7;µg-m3;100.0;100;100.0;A;1;48.445553;0.110833
2025/01/14 00:00:00;2025/01/14 19:00:00;ATMO NORMANDIE;FR28ZRE02;ZR NORMANDIE;FR21038;Cherbourg Hotel de Ville;Urbaine;O3;Fond;Oui;mesures fixes;Max. journalier moy. hor.;50.0;49.975;µg-m3;100.0;100;100.0;R;1;49.64225;-1.624361
2025/01/14 00:00:00;2025/01/14 19:00:00;ATMO NORMANDIE;FR28ZRE02;ZR NORMANDIE;FR21040;Saint-Lô Eglise;Urbaine;O3;Fond;Oui;mesures fixes;Max. journalier moy. hor.;47.5;47.5;µg-m3;95.0;100;95.0;R;1;49.11639;-1.084722
2025/01/14 00:00:00;2025/01/14 19:00:00;ATMO NORMANDIE;FR28ZRE02;ZR NORMANDIE;FR21050;La Coulonche MERA;Rurale nationale;O3;Fond;Oui;mesures fixes;Max. journalier moy. hor.;77.5;77.525;µg-m3;100.0;100;100.0;A;1;48.645;-0.458333
2025/01/14 00:00:00;2025/01/14 19:00:00;ATMO GRAND EST;FR44ZRE01;ZR GRAND-EST;FR22054;Station de FORBACH;Urbaine;O3;Fond;Oui;mesures fixes;Max. journalier moy. hor.;31.3;31.25;µg-m3;100.0;100;100.0;A;1;49.18742;6.910867
2025/01/14 00:00:00;2025/01/14 19:00:00;ATMO SUD;FR93ZAG02;ZAG NICE;FR24007;ANTIBES JEAN MOULIN;Périurbaine;O3;Fond;Oui;mesures fixes;Max. journalier moy. hor.;77.7;77.7;µg-m3;100.0;100;100.0;R;1;43.598803;7.093153
2025/01/14 00:00:00;2025/01/14 19:00:00;ATMO SUD;FR93ZAG02;ZAG NICE;FR24009;CANNES BROUSSAILLES;Urbaine;O3;Fond;Oui;mesures fixes;Max. journalier moy. hor.;79.0;78.95;µg-m3;100.0;100;100.0;R;1;43.558389;7.005919
2025/01/14 00:00:00;2025/01/14 19:00:00;ATMO SUD;FR93ZAG02;ZAG NICE;FR24011;NICE OUEST BOTANIQUE;Périurbaine;O3;Fond;Oui;mesures fixes;Max. journalier moy. hor.;76.7;76.7;µg-m3;100.0;100;100.0;R;1;43.685188;7.211174
2025/01/14 00:00:00;2025/01/14 19:00:00;ATMO SUD;FR93ZRE02;ZR PROVENCE-ALPES-COTE-D-AZUR;FR24014;CIANS;Rurale régionale;O3;Fond;Oui;mesures fixes;Max. journalier moy. hor.;97.4;97.35;µg-m3;100.0;100;100.0;R;1;44.094688;6.988978
2025/01/14 00:00:00;2025/01/14 19:00:00;ATMO SUD;FR93ZRE02;ZR PROVENCE-ALPES-COTE-D-AZUR;FR24018;MANOSQUE;Urbaine;O3;Fond;Oui;mesures fixes;Max. journalier moy. hor.;61.5;61.525;µg-m3;100.0;100;100.0;R;1;43.835784;5.786131
2025/01/14 00:00:00;2025/01/14 19:00:00;ATMO SUD;FR93ZRE02;ZR PROVENCE-ALPES-COTE-D-AZUR;FR24033;GAP COMMANDERIE;Urbaine;O3;Fond;Oui;mesures fixes;Max. journalier moy. hor.;59.8;59.8;µg-m3;100.0;100;100.0;R;1;44.555193;6.073015
2025/01/14 00:00:00;2025/01/14 19:00:00;ATMO SUD;FR93ZAG02;ZAG NICE;FR24036;NICE ARSON;Urbaine;O3;Fond;Oui;mesures fixes;Max. journalier moy. hor.;76.9;76.9;µg-m3;100.0;100;100.0;R;1;43.702075;7.286256
2025/01/14 00:00:00;2025/01/14 19:00:00;ATMO SUD;FR93ZRE02;ZR PROVENCE-ALPES-COTE-D-AZUR;FR24039;Obs Haute-Provence;Rurale près des villes;O3;Fond;Oui;mesures fixes;Max. journalier moy. hor.;77.7;77.65;µg-m3;100.0;100;100.0;R;1;43.933476;5.711809
2025/01/14 00:00:00;2025/01/14 19:00:00;ATMO NORMANDIE;FR28ZAG01;ZAG ROUEN;FR25036;Espace du Palais;Urbaine;O3;Fond;Oui;mesures fixes;Max. journalier moy. hor.;23.5;23.5;µg-m3;100.0;100;100.0;A;1;49.442358;1.093789
2025/01/14 00:00:00;2025/01/14 19:00:00;ATMO NORMANDIE;FR28ZRE02;ZR NORMANDIE;FR25039;Evreux Centre;Urbaine;O3;Fond;Oui;mesures fixes;Max. journalier moy. hor.;4.4;4.36667;µg-m3;5.0;100;5.0;N;-1;49.02134;1.148319
2025/01/14 00:00:00;2025/01/14 19:00:00;ATMO NORMANDIE;FR28ZAG01;ZAG ROUEN;FR25040;Mesnil Esnard;Périurbaine;O3;Fond;Oui;mesures fixes;Max. journalier moy. hor.;55.6;55.575;µg-m3;100.0;100;100.0;A;1;49.40619;1.15515
2025/01/14 00:00:00;2025/01/14 19:00:00;ATMO NORMANDIE;FR28ZAG01;ZAG ROUEN;FR25043;Centre Hospitalier;Urbaine;O3;Fond;Oui;mesures fixes;Max. journalier moy. hor.;36.6;36.625;µg-m3;100.0;100;100.0;A;1;49.4005;1.099042
2025/01/14 00:00:00;2025/01/14 19:00:00;ATMO NORMANDIE;FR28ZRE02;ZR NORMANDIE;FR25049;Base loisirs Poses;Rurale près des villes;O3;Fond;Oui;mesures fixes;Max. journalier moy. hor.;25.9;25.875;µg-m3;100.0;100;100.0;A;1;49.30487;1.214367
2025/01/14 00:00:00;2025/01/14 19:00:00;ATMO NORMANDIE;FR28ZRE02;ZR NORMANDIE;FR25050;Bures-en-bray;Rurale régionale;O3;Fond;Oui;mesures fixes;Max. journalier moy. hor.;51.3;51.25;µg-m3;100.0;100;100.0;A;1;49.78122;1.345083
2025/01/14 00:00:00;2025/01/14 19:00:00;ATMO NORMANDIE;FR28ZRE02;ZR NORMANDIE;FR25055;Dieppe Golf;Périurbaine;O3;Fond;Oui;mesures fixes;Max. journalier moy. hor.;60.3;60.3;µg-m3;100.0;100;100.0;R;1;49.920492;1.047892
2025/01/14 00:00:00;2025/01/14 19:00:00;ATMO BOURGOGNE-FRANCHE-COMTE;FR27ZAR02;ZAR DIJON;FR26005;Dijon Péjoces;Périurbaine;O3;Fond;Oui;mesures fixes;Max. journalier moy. hor.;47.5;47.475;µg-m3;100.0;100;100.0;R;1;47.307368;5.065881
2025/01/14 00:00:00;2025/01/14 19:00:00;ATMO BOURGOGNE-FRANCHE-COMTE;FR27ZAR02;ZAR DIJON;FR26010;Daix;Périurbaine;O3;Fond;Oui;mesures fixes;Max. journalier moy. hor.;57.3;57.3;µg-m3;100.0;100;100.0;A;1;47.3456;5.002377
2025/01/14 00:00:00;2025/01/14 19:00:00;ATMO BOURGOGNE-FRANCHE-COMTE;FR27ZRE01;ZR BOURGOGNE-FRANCHE-COMTE;FR26012;Morvan;Rurale nationale;O3;Fond;Oui;mesures fixes;Max. journalier moy. hor.;73.4;73.35;µg-m3;100.0;100;100.0;A;1;47.274762;4.099476
2025/01/14 00:00:00;2025/01/14 19:00:00;ATMO BOURGOGNE-FRANCHE-COMTE;FR27ZRE01;ZR BOURGOGNE-FRANCHE-COMTE;FR26016;Sens;Urbaine;O3;Fond;Oui;mesures fixes;Max. journalier moy. hor.;43.8;43.8;µg-m3;100.0;100;100.0;R;1;48.200436;3.2773
2025/01/14 00:00:00;2025/01/14 19:00:00;ATMO BOURGOGNE-FRANCHE-COMTE;FR27ZRE01;ZR BOURGOGNE-FRANCHE-COMTE;FR26017;Nevers;Urbaine;O3;Fond;Oui;mesures fixes;Max. journalier moy. hor.;45.3;45.3;µg-m3;100.0;100;100.0;A;1;46.996828;3.171092
2025/01/14 00:00:00;2025/01/14 19:00:00;ATMO BOURGOGNE-FRANCHE-COMTE;FR27ZRE01;ZR BOURGOGNE-FRANCHE-COMTE;FR26019;Auxerre;Urbaine;O3;Fond;Oui;mesures fixes;Max. journalier moy. hor.;45.7;45.65;µg-m3;100.0;100;100.0;A;1;47.800575;3.576189
2025/01/14 00:00:00;2025/01/14 19:00:00;ATMO AUVERGNE-RHÔNE-ALPES;FR84ZAR02;ZAR VALLEE-DU-RHONE;FR27002;ROUSSILLON;Urbaine;O3;Fond;Oui;mesures indicatives;Max. journalier moy. hor.;51.0;51.025;µg-m3;100.0;100;100.0;A;1;45.36782;4.805147
2025/01/14 00:00:00;2025/01/14 19:00:00;ATMO AUVERGNE-RHÔNE-ALPES;FR84ZRE02;ZR AUVERGNE-RHONE-ALPES;FR27003;ROCHES DE CONDRIEU;Périurbaine;O3;Fond;Oui;mesures fixes;Max. journalier moy. hor.;47.2;47.225;µg-m3;100.0;100;100.0;R;1;45.454517;4.766528
2025/01/14 00:00:00;2025/01/14 19:00:00;ATMO AUVERGNE-RHÔNE-ALPES;FR84ZAR02;ZAR VALLEE-DU-RHONE;FR27005;Sablons;Périurbaine;O3;Fond;Oui;mesures fixes;Max. journalier moy. hor.;43.7;43.65;µg-m3;100.0;100;100.0;A;1;45.321845;4.770702
2025/01/14 00:00:00;2025/01/14 19:00:00;ATMO AUVERGNE-RHÔNE-ALPES;FR84ZAG01;ZAG LYON;FR27007;Bourgoin-Jallieu;Urbaine;O3;Fond;Oui;mesures indicatives;Max. journalier moy. hor.;42.9;42.875;µg-m3;100.0;100;100.0;R;1;45.60822;5.270872
2025/01/14 00:00:00;2025/01/14 19:00:00;ATMO AUVERGNE-RHÔNE-ALPES;FR84ZRE02;ZR AUVERGNE-RHONE-ALPES;FR27010;Plateau de Bonnevaux;Rurale près des villes;O3;Fond;Oui;mesures fixes;Max. journalier moy. hor.;48.1;48.125;µg-m3;100.0;100;100.0;A;1;45.4609;5.181081
2025/01/14 00:00:00;2025/01/14 19:00:00;ATMO HAUTS DE FRANCE;FR32ZAG01;ZAG BLDV;FR28010;Harnes Serres;Périurbaine;O3;Fond;Oui;mesures fixes;Max. journalier moy. hor.;43.2;43.2;µg-m3;100.0;100;100.0;A;1;50.44914;2.9
2025/01/14 00:00:00;2025/01/14 19:00:00;ATMO HAUTS DE FRANCE;FR32ZAR04;ZAR ARRAS;FR28022;St-Laurent-Blangy;Périurbaine;O3;Fond;Oui;mesures fixes;Max. journalier moy. hor.;48.9;48.9;µg-m3;100.0;100;100.0;A;1;50.30886;2.807369
2025/01/14 00:00:00;2025/01/14 19:00:00;ATMO HAUTS DE FRANCE;FR32ZAG01;ZAG BLDV;FR28028;Bethune Stade;Urbaine;O3;Fond;Oui;mesures fixes;Max. journalier moy. hor.;60.9;60.85;µg-m3;100.0;100;100.0;A;1;50.535385;2.635692
2025/01/14 00:00:00;2025/01/14 19:00:00;ATMO AUVERGNE-RHÔNE-ALPES;FR84ZRE02;ZR AUVERGNE-RHONE-ALPES;FR29423;ROANNE;Urbaine;O3;Fond;Oui;mesures indicatives;Max. journalier moy. hor.;41.4;41.375;µg-m3;100.0;100;100.0;A;1;46.04111;4.074656
2025/01/14 00:00:00;2025/01/14 19:00:00;ATMO AUVERGNE-RHÔNE-ALPES;FR84ZAG03;ZAG SAINT-ETIENNE;FR29424;SAINT ETIENNE SUD;Urbaine;O3;Fond;Oui;mesures fixes;Max. journalier moy. hor.;53.6;53.575;µg-m3;100.0;100;100.0;A;1;45.42009;4.395422
2025/01/14 00:00:00;2025/01/14 19:00:00;ATMO AUVERGNE-RHÔNE-ALPES;FR84ZAG03;ZAG SAINT-ETIENNE;FR29426;SAINT-CHAMOND;Urbaine;O3;Fond;Oui;mesures indicatives;Max. journalier moy. hor.;57.2;57.15;µg-m3;100.0;100;100.0;R;1;45.475327;4.515003
2025/01/14 00:00:00;2025/01/14 19:00:00;ATMO AUVERGNE-RHÔNE-ALPES;FR84ZAG03;ZAG SAINT-ETIENNE;FR29439;LA TALAUDIERE;Périurbaine;O3;Fond;Oui;mesures fixes;Max. journalier moy. hor.;62.8;62.825;µg-m3;100.0;100;100.0;A;1;45.481777;4.429667
2025/01/14 00:00:00;2025/01/14 19:00:00;ATMO GRAND EST;FR44ZRE01;ZR GRAND-EST;FR30019;Epinal;Urbaine;O3;Fond;Oui;mesures fixes;Max. journalier moy. hor.;38.4;38.375;µg-m3;100.0;100;100.0;R;1;48.1726528;6.45281666
2025/01/14 00:00:00;2025/01/14 19:00:00;ATMO GRAND EST;FR44ZRE01;ZR GRAND-EST;FR30028;Schlucht;Rurale près des villes;O3;Fond;Oui;mesures fixes;Max. journalier moy. hor.;88.5;88.475;µg-m3;100.0;100;100.0;A;1;48.051117;7.011114
2025/01/14 00:00:00;2025/01/14 19:00:00;ATMO GRAND EST;FR44ZRE01;ZR GRAND-EST;FR30033;Jonville en Woevre;Rurale régionale;O3;Fond;Oui;mesures fixes;Max. journalier moy. hor.;28.7;28.725;µg-m3;100.0;100;100.0;A;1;49.06583;5.785556
2025/01/14 00:00:00;2025/01/14 19:00:00;ATMO GRAND EST;FR44ZAG03;ZAG NANCY;FR30034;Nancy-Charles III;Urbaine;O3;Fond;Oui;mesures fixes;Max. journalier moy. hor.;41.5;41.525;µg-m3;100.0;100;100.0;R;1;48.68817;6.190431
2025/01/14 00:00:00;2025/01/14 19:00:00;ATMO GRAND EST;FR44ZAG03;ZAG NANCY;FR30037;Nancy-Brabois 2;Périurbaine;O3;Fond;Oui;mesures fixes;Max. journalier moy. hor.;48.7;48.7;µg-m3;100.0;100;100.0;R;1;48.656944;6.136022
2025/01/14 00:00:00;2025/01/14 19:00:00;ATMO NOUVELLE-AQUITAINE;FR75ZAG01;ZAG BORDEAUX;FR31001;GRAND PARC;Urbaine;O3;Fond;Oui;mesures fixes;Max. journalier moy. hor.;60.9;60.9;µg-m3;26.0;100;26.0;N;-1;44.86121;-0.58037
2025/01/14 00:00:00;2025/01/14 19:00:00;ATMO NOUVELLE-AQUITAINE;FR75ZAG01;ZAG BORDEAUX;FR31002;TALENCE;Urbaine;O3;Fond;Oui;mesures fixes;Max. journalier moy. hor.;51.7;51.7;µg-m3;100.0;100;100.0;R;1;44.800462;-0.589398
2025/01/14 00:00:00;2025/01/14 19:00:00;ATMO NOUVELLE-AQUITAINE;FR75ZAG01;ZAG BORDEAUX;FR31007;BASSENS;Urbaine;O3;Fond;Oui;mesures fixes;Max. journalier moy. hor.;53.9;53.875;µg-m3;100.0;100;100.0;A;1;44.900296;-0.515835
2025/01/14 00:00:00;2025/01/14 19:00:00;ATMO NOUVELLE-AQUITAINE;FR75ZRE02;ZR NOUVELLE-AQUITAINE;FR31008;LE TEMPLE;Rurale régionale;O3;Fond;Oui;mesures fixes;Max. journalier moy. hor.;30.2;30.225;µg-m3;53.0;100;53.0;N;-1;44.86581;-0.94
2025/01/14 00:00:00;2025/01/14 19:00:00;ATMO NOUVELLE-AQUITAINE;FR75ZAG01;ZAG BORDEAUX;FR31010;AMBES;Périurbaine;O3;Fond;Oui;mesures fixes;Max. journalier moy. hor.;60.8;60.825;µg-m3;100.0;100;100.0;A;1;45.014777;-0.533942
2025/01/14 00:00:00;2025/01/14 19:00:00;ATMO NOUVELLE-AQUITAINE;FR75ZRE02;ZR NOUVELLE-AQUITAINE;FR31013;BILLERE;Urbaine;O3;Fond;Oui;mesures fixes;Max. journalier moy. hor.;66.6;66.6;µg-m3;100.0;100;100.0;A;1;43.310797;-0.391543
2025/01/14 00:00:00;2025/01/14 19:00:00;ATMO NOUVELLE-AQUITAINE;FR75ZAG02;ZAG BAYONNE;FR31016;SAINT-CROUTS;Urbaine;O3;Fond;Oui;mesures fixes;Max. journalier moy. hor.;54.5;54.475;µg-m3;100.0;100;100.0;A;1;43.47982;-1.489157
2025/01/14 00:00:00;2025/01/14 19:00:00;ATMO NOUVELLE-AQUITAINE;FR75ZRE02;ZR NOUVELLE-AQUITAINE;FR31021;LABASTIDE CEZERACQ;Rurale près des villes;O3;Fond;Oui;mesures fixes;Max. journalier moy. hor.;68.5;68.45;µg-m3;100.0;100;100.0;A;1;43.376279;-0.538206
2025/01/14 00:00:00;2025/01/14 19:00:00;ATMO NOUVELLE-AQUITAINE;FR75ZRE02;ZR NOUVELLE-AQUITAINE;FR31033;PERIGUEUX;Urbaine;O3;Fond;Oui;mesures fixes;Max. journalier moy. hor.;55.1;55.05;µg-m3;89.0;100;89.0;R;1;45.189825;0.727184
2025/01/14 00:00:00;2025/01/14 19:00:00;ATMO NOUVELLE-AQUITAINE;FR75ZAG02;ZAG BAYONNE;FR31043;Biarritz-hippodrome;Périurbaine;O3;Fond;Oui;mesures fixes;Max. journalier moy. hor.;62.0;61.975;µg-m3;100.0;100;100.0;R;1;43.470237;-1.553876
2025/01/14 00:00:00;2025/01/14 19:00:00;ATMO NOUVELLE-AQUITAINE;FR75ZRE02;ZR NOUVELLE-AQUITAINE;FR31055;MONT-DE-MARSAN - MIDOUZE;Urbaine;O3;Fond;Oui;mesures fixes;Max. journalier moy. hor.;57.4;57.425;µg-m3;100.0;100;100.0;R;1;43.888972;-0.507028
2025/01/14 00:00:00;2025/01/14 19:00:00;ATMO BOURGOGNE-FRANCHE-COMTE;FR27ZAR04;ZAR CHALON;FR32002;Champforgueil;Périurbaine;O3;Fond;Oui;mesures fixes;Max. journalier moy. hor.;72.1;72.075;µg-m3;100.0;100;100.0;R;1;46.821056;4.835083
2025/01/14 00:00:00;2025/01/14 19:00:00;ATMO BOURGOGNE-FRANCHE-COMTE;FR27ZRE01;ZR BOURGOGNE-FRANCHE-COMTE;FR32005;Montceau-les-Mines 9me écluse;Urbaine;O3;Fond;Oui;mesures fixes;Max. journalier moy. hor.;43.2;43.225;µg-m3;100.0;100;100.0;A;1;46.678785;4.366893
2025/01/14 00:00:00;2025/01/14 19:00:00;ATMO BOURGOGNE-FRANCHE-COMTE;FR27ZRE01;ZR BOURGOGNE-FRANCHE-COMTE;FR32006;Macon Paul Bert;Périurbaine;O3;Fond;Oui;mesures fixes;Max. journalier moy. hor.;46.3;46.25;µg-m3;100.0;100;100.0;R;1;46.316172;4.839994
2025/01/14 00:00:00;2025/01/14 19:00:00;ATMO AUVERGNE-RHÔNE-ALPES;FR84ZAR01;ZAR PAYS-DE-SAVOIE;FR33102;CHAMBERY LE HAUT;Urbaine;O3;Fond;Oui;mesures indicatives;Max. journalier moy. hor.;44.0;44.0;µg-m3;100.0;79;79.0;A;1;45.59667;5.918611
2025/01/14 00:00:00;2025/01/14 19:00:00;ATMO AUVERGNE-RHÔNE-ALPES;FR84ZRE02;ZR AUVERGNE-RHONE-ALPES;FR33111;SAINT JEAN;Urbaine;O3;Fond;Oui;mesures indicatives;Max. journalier moy. hor.;34.4;34.425;µg-m3;79.0;100;79.0;A;1;45.274723;6.349722
2025/01/14 00:00:00;2025/01/14 19:00:00;ATMO AUVERGNE-RHÔNE-ALPES;FR84ZAR03;ZAR VALLEE-DE-L-ARVE;FR33120;CHAMONIX;Urbaine;O3;Fond;Oui;mesures fixes;Max. journalier moy. hor.;19.3;19.275;µg-m3;100.0;100;100.0;A;1;45.9225;6.87
2025/01/14 00:00:00;2025/01/14 19:00:00;ATMO AUVERGNE-RHÔNE-ALPES;FR84ZAR04;ZAR VALLEE-DE-LA-TARANTAISE;FR33121;Albertville;Urbaine;O3;Fond;Oui;mesures fixes;Max. journalier moy. hor.;30.2;30.2;µg-m3;100.0;100;100.0;R;1;45.675;6.389722
2025/01/14 00:00:00;2025/01/14 19:00:00;ATMO AUVERGNE-RHÔNE-ALPES;FR84ZAR01;ZAR PAYS-DE-SAVOIE;FR33201;LOVERCHY;Urbaine;O3;Fond;Oui;mesures fixes;Max. journalier moy. hor.;39.8;39.8;µg-m3;100.0;100;100.0;A;1;45.89528;6.118333
2025/01/14 00:00:00;2025/01/14 19:00:00;ATMO AUVERGNE-RHÔNE-ALPES;FR84ZAR01;ZAR PAYS-DE-SAVOIE;FR33202;NOVEL;Urbaine;O3;Fond;Oui;mesures fixes;Max. journalier moy. hor.;45.3;45.325;µg-m3;95.0;100;95.0;R;1;45.916943;6.135556
2025/01/14 00:00:00;2025/01/14 19:00:00;ATMO AUVERGNE-RHÔNE-ALPES;FR84ZAR01;ZAR PAYS-DE-SAVOIE;FR33211;ANNEMASSE;Urbaine;O3;Fond;Oui;mesures indicatives;Max. journalier moy. hor.;45.7;45.725;µg-m3;100.0;100;100.0;A;1;46.19583;6.240556
2025/01/14 00:00:00;2025/01/14 19:00:00;ATMO AUVERGNE-RHÔNE-ALPES;FR84ZAR01;ZAR PAYS-DE-SAVOIE;FR33212;GAILLARD;Urbaine;O3;Fond;Oui;mesures fixes;Max. journalier moy. hor.;44.3;44.3;µg-m3;95.0;100;95.0;R;1;46.19369;6.214858
2025/01/14 00:00:00;2025/01/14 19:00:00;ATMO AUVERGNE-RHÔNE-ALPES;FR84ZAR03;ZAR VALLEE-DE-L-ARVE;FR33220;PASSY;Périurbaine;O3;Fond;Oui;mesures fixes;Max. journalier moy. hor.;23.2;23.225;µg-m3;100.0;100;100.0;A;1;45.92361;6.713611
2025/01/14 00:00:00;2025/01/14 19:00:00;ATMO AUVERGNE-RHÔNE-ALPES;FR84ZRE02;ZR AUVERGNE-RHONE-ALPES;FR33302;St Germain/Rhône;Rurale près des villes;O3;Fond;Oui;mesures fixes;Max. journalier moy. hor.;47.7;47.65;µg-m3;95.0;100;95.0;A;1;46.072224;5.820833
2025/01/14 00:00:00;2025/01/14 19:00:00;ATMO AUVERGNE-RHÔNE-ALPES;FR84ZRE02;ZR AUVERGNE-RHONE-ALPES;FR33305;Bourg-en-Bresse;Urbaine;O3;Fond;Oui;mesures fixes;Max. journalier moy. hor.;29.2;29.2;µg-m3;100.0;100;100.0;R;1;46.211666;5.226389
2025/01/14 00:00:00;2025/01/14 19:00:00;ATMO NOUVELLE-AQUITAINE;FR75ZRE02;ZR NOUVELLE-AQUITAINE;FR35002;ST JUNIEN - Fontaine;Urbaine;O3;Fond;Oui;mesures fixes;Max. journalier moy. hor.;59.6;59.55;µg-m3;100.0;89;89.0;A;1;45.884851;0.898431
2025/01/14 00:00:00;2025/01/14 19:00:00;ATMO NOUVELLE-AQUITAINE;FR75ZRE02;ZR NOUVELLE-AQUITAINE;FR35004;BRIVE - Dalton;Urbaine;O3;Fond;Oui;mesures fixes;Max. journalier moy. hor.;56.1;56.05;µg-m3;100.0;100;100.0;A;1;45.158738;1.537259
2025/01/14 00:00:00;2025/01/14 19:00:00;ATMO NOUVELLE-AQUITAINE;FR75ZRE02;ZR NOUVELLE-AQUITAINE;FR35005;GUERET - Nicolas;Urbaine;O3;Fond;Oui;mesures fixes;Max. journalier moy. hor.;52.5;52.475;µg-m3;100.0;100;100.0;R;1;46.17362;1.873024
2025/01/14 00:00:00;2025/01/14 19:00:00;ATMO NOUVELLE-AQUITAINE;FR75ZRE02;ZR NOUVELLE-AQUITAINE;FR35006;TULLE - Hugo;Urbaine;O3;Fond;Oui;mesures fixes;Max. journalier moy. hor.;55.4;55.425;µg-m3;100.0;100;100.0;A;1;45.262665;1.762752
2025/01/14 00:00:00;2025/01/14 19:00:00;ATMO NOUVELLE-AQUITAINE;FR75ZAR01;ZAR LIMOGES;FR35007;PALAIS S/ V.- Garros;Périurbaine;O3;Fond;Oui;mesures fixes;Max. journalier moy. hor.;70.5;70.45;µg-m3;100.0;100;100.0;A;1;45.873311;1.307916
2025/01/14 00:00:00;2025/01/14 19:00:00;ATMO NOUVELLE-AQUITAINE;FR75ZRE02;ZR NOUVELLE-AQUITAINE;FR35012;LA NOUAILLE - MERA;Rurale nationale;O3;Fond;Oui;mesures fixes;Max. journalier moy. hor.;71.2;71.15;µg-m3;100.0;100;100.0;A;1;45.80509;2.062333
2025/01/14 00:00:00;2025/01/14 19:00:00;ATMO NOUVELLE-AQUITAINE;FR75ZAR01;ZAR LIMOGES;FR35027;LIMOGES - BERLAND;Urbaine;O3;Fond;Oui;mesures fixes;Max. journalier moy. hor.;48.3;48.25;µg-m3;100.0;100;100.0;A;1;45.842204;1.259689
2025/01/14 00:00:00;2025/01/14 19:00:00;ATMO AUVERGNE-RHÔNE-ALPES;FR84ZAR02;ZAR VALLEE-DU-RHONE;FR36001;Valence Périurb. Sud;Périurbaine;O3;Fond;Oui;mesures fixes;Max. journalier moy. hor.;64.0;64.025;µg-m3;100.0;100;100.0;A;1;44.870243;4.876289
2025/01/14 00:00:00;2025/01/14 19:00:00;ATMO AUVERGNE-RHÔNE-ALPES;FR84ZAR02;ZAR VALLEE-DU-RHONE;FR36002;Valence Urb. Centre;Urbaine;O3;Fond;Oui;mesures fixes;Max. journalier moy. hor.;46.2;46.175;µg-m3;100.0;100;100.0;A;1;44.933514;4.893481
2025/01/14 00:00:00;2025/01/14 19:00:00;ATMO AUVERGNE-RHÔNE-ALPES;FR84ZAR02;ZAR VALLEE-DU-RHONE;FR36019;Romans-sur-Isère;Urbaine;O3;Fond;Oui;mesures indicatives;Max. journalier moy. hor.;44.3;44.275;µg-m3;100.0;100;100.0;A;1;45.0425;5.0443
2025/01/14 00:00:00;2025/01/14 19:00:00;ATMO AUVERGNE-RHÔNE-ALPES;FR84ZRE02;ZR AUVERGNE-RHONE-ALPES;FR36021;Drôme Rurale Sud-SND;Rurale nationale;O3;Fond;Oui;mesures fixes;Max. journalier moy. hor.;45.1;45.05;µg-m3;95.0;100;95.0;R;1;44.569443;5.278972
2025/01/14 00:00:00;2025/01/14 19:00:00;ATMO REUNION;FR04ZAR02;ZAR VOLCAN;FR38014;Ligne Paradis;Périurbaine;O3;Fond;Oui;mesures fixes;Max. journalier moy. hor.;49.1;49.075;µg-m3;100.0;95;95.0;A;1;-21.312895;55.474194
2025/01/14 00:00:00;2025/01/14 19:00:00;ATMO REUNION;FR04ZAR02;ZAR VOLCAN;FR38016;Station Bourg-Murat;Rurale régionale;O3;Fond;Oui;mesures fixes;Max. journalier moy. hor.;64.6;64.625;µg-m3;100.0;95;95.0;A;1;-21.204815;55.58262
2025/01/14 00:00:00;2025/01/14 19:00:00;ATMO REUNION;FR04ZAR01;ZAR SAINT-DENIS;FR38020;Plateau Caillou;Urbaine;O3;Fond;Oui;mesures fixes;Max. journalier moy. hor.;51.1;51.075;µg-m3;100.0;95;95.0;A;1;-21.022112;55.266773
2025/01/14 00:00:00;2025/01/14 19:00:00;ATMO REUNION;FR04ZAR01;ZAR SAINT-DENIS;FR38021;Grand Fond;Périurbaine;O3;Fond;Oui;mesures fixes;Max. journalier moy. hor.;33.0;33.0;µg-m3;78.0;95;74.0;A;1;-21.032139;55.232563
2025/01/14 00:00:00;2025/01/14 19:00:00;QUALITAIR CORSE;FR94ZAR01;ZAR AJACCIO;FR41001;AJACCIO CANETTO;Urbaine;O3;Fond;Oui;mesures fixes;Max. journalier moy. hor.;62.0;61.975;µg-m3;100.0;100;100.0;R;1;41.924694;8.735694
2025/01/14 00:00:00;2025/01/14 19:00:00;QUALITAIR CORSE;FR94ZAR02;ZAR BASTIA;FR41002;BASTIA GIRAUD;Urbaine;O3;Fond;Oui;mesures fixes;Max. journalier moy. hor.;64.6;64.6;µg-m3;100.0;100;100.0;R;1;42.697917;9.446417
2025/01/14 00:00:00;2025/01/14 19:00:00;QUALITAIR CORSE;FR94ZAR02;ZAR BASTIA;FR41004;BASTIA LA MARANA;Périurbaine;O3;Industrielle;Oui;mesures fixes;Max. journalier moy. hor.;68.0;67.975;µg-m3;95.0;100;95.0;R;1;42.535833;9.475972
2025/01/14 00:00:00;2025/01/14 19:00:00;QUALITAIR CORSE;FR94ZAR02;ZAR BASTIA;FR41017;BASTIA MONTESORO;Périurbaine;O3;Fond;Oui;mesures fixes;Max. journalier moy. hor.;66.1;66.075;µg-m3;100.0;100;100.0;R;1;42.671333;9.434639
2025/01/14 00:00:00;2025/01/14 19:00:00;QUALITAIR CORSE;FR94ZRE01;ZR CORSE;FR41024;VENACO;Rurale régionale;O3;Fond;Oui;mesures fixes;Max. journalier moy. hor.;74.7;74.675;µg-m3;100.0;100;100.0;R;1;42.236028;9.190028
2025/01/14 00:00:00;2025/01/14 19:00:00;QUALITAIR CORSE;FR94ZAR01;ZAR AJACCIO;FR41063;AJACCIO CONFINA 2;Périurbaine;O3;Fond;Oui;mesures fixes;Max. journalier moy. hor.;57.7;57.65;µg-m3;100.0;100;100.0;R;1;41.94768611;8.79615833
2025/01/14 00:00:00;2025/01/14 19:00:00;ATMO GRAND EST;FR44ZRE01;ZR GRAND-EST;FR42011;Haguenau-Place marché aux bestiaux;Urbaine;O3;Fond;Oui;mesures fixes;Max. journalier moy. hor.;38.9;38.875;µg-m3;100.0;100;100.0;A;1;48.818352;7.786409
2025/01/14 00:00:00;2025/01/14 19:00:00;ATMO OCCITANIE;FR76ZRE01;ZR OCCITANIE;FR50060;Montauban;Urbaine;O3;Fond;Oui;mesures fixes;Max. journalier moy. hor.;57.1;57.075;µg-m3;100.0;100;100.0;R;1;44.01285657;1.37530522
2025/01/14 00:00:00;2025/01/14 19:00:00;ATMO BOURGOGNE-FRANCHE-COMTE;FR27ZAR03;ZAR BESANCON;FR82005;Montfaucon;Périurbaine;O3;Fond;Oui;mesures fixes;Max. journalier moy. hor.;54.7;54.725;µg-m3;100.0;100;100.0;A;1;47.23461;6.076472
2025/01/14 00:00:00;2025/01/14 19:00:00;ATMO BOURGOGNE-FRANCHE-COMTE;FR27ZAR03;ZAR BESANCON;FR82006;Besançon Prévoyance;Urbaine;O3;Fond;Oui;mesures fixes;Max. journalier moy. hor.;50.8;50.775;µg-m3;100.0;100;100.0;A;1;47.2474;6.015419
2025/01/14 00:00:00;2025/01/14 19:00:00;ATMO BOURGOGNE-FRANCHE-COMTE;FR27ZAR01;ZAR BELFORT-MONTBELIARD;FR82010;Montbéliard centre;Urbaine;O3;Fond;Oui;mesures fixes;Max. journalier moy. hor.;41.9;41.875;µg-m3;100.0;100;100.0;R;1;47.510307;6.794
2025/01/14 00:00:00;2025/01/14 19:00:00;ATMO BOURGOGNE-FRANCHE-COMTE;FR27ZAR01;ZAR BELFORT-MONTBELIARD;FR82012;Dambenois Citoyen;Périurbaine;O3;Fond;Oui;mesures fixes;Max. journalier moy. hor.;48.5;48.475;µg-m3;100.0;100;100.0;A;1;47.538193;6.868361
2025/01/14 00:00:00;2025/01/14 19:00:00;ATMO BOURGOGNE-FRANCHE-COMTE;FR27ZAR01;ZAR BELFORT-MONTBELIARD;FR82021;Belfort centre;Urbaine;O3;Fond;Oui;mesures indicatives;Max. journalier moy. hor.;40.5;40.5;µg-m3;100.0;100;100.0;R;1;47.630755;6.858944
2025/01/14 00:00:00;2025/01/14 19:00:00;ATMO BOURGOGNE-FRANCHE-COMTE;FR27ZRE01;ZR BOURGOGNE-FRANCHE-COMTE;FR82030;Montandon Baresans;Rurale nationale;O3;Fond;Oui;mesures fixes;Max. journalier moy. hor.;61.2;61.2;µg-m3;84.0;100;84.0;R;1;47.29464;6.825861
2025/01/14 00:00:00;2025/01/14 19:00:00;ATMO BOURGOGNE-FRANCHE-COMTE;FR27ZRE01;ZR BOURGOGNE-FRANCHE-COMTE;FR82040;Dole centre;Urbaine;O3;Fond;Oui;mesures fixes;Max. journalier moy. hor.;41.9;41.9;µg-m3;100.0;100;100.0;A;1;47.09672;5.496389
2025/01/14 00:00:00;2025/01/14 19:00:00;ATMO BOURGOGNE-FRANCHE-COMTE;FR27ZRE01;ZR BOURGOGNE-FRANCHE-COMTE;FR82050;Lons-le-Saunier CV;Urbaine;O3;Fond;Oui;mesures fixes;Max. journalier moy. hor.;37.5;37.45;µg-m3;89.0;100;89.0;R;1;46.671321;5.55662
2025/01/14 00:00:00;2025/01/14 19:00:00;ATMO BOURGOGNE-FRANCHE-COMTE;FR27ZRE01;ZR BOURGOGNE-FRANCHE-COMTE;FR82060;Vesoul Pres Caillet;Urbaine;O3;Fond;Oui;mesures fixes;Max. journalier moy. hor.;45.0;44.975;µg-m3;100.0;100;100.0;A;1;47.620022;6.157642
2025/01/14 00:00:00;2025/01/14 23:00:00;ATMO REUNION;FR04ZAR01;ZAR SAINT-DENIS;FR38001;LYC. LISLET GEOFFROY;Urbaine;O3;Fond;Oui;mesures fixes;Max. journalier moy. hor.;47.2;47.2;µg-m3;100.0;100;100.0;R;1;-20.889893;55.46884
2025/01/14 00:00:00;2025/01/14 23:00:00;ATMO REUNION;FR04ZAR01;ZAR SAINT-DENIS;FR38002;MONTGAILLARD;Périurbaine;O3;Fond;Oui;mesures fixes;Max. journalier moy. hor.;42.8;42.76667;µg-m3;13.0;100;13.0;N;-1;-20.903294;55.468334
2025/01/14 00:00:00;2025/01/14 23:00:00;ATMO REUNION;FR04ZAR02;ZAR VOLCAN;FR38011;Station Luther King;Urbaine;O3;Fond;Oui;mesures fixes;Max. journalier moy. hor.;47.0;46.975;µg-m3;100.0;100;100.0;R;1;-21.334406;55.45906
